{
  "airports": [
    {
      "code": "TIR",
      "name": "Tirupati Airport",
      "lat": 13.632499694800002,
      "lng": 79.543296814,
      "city": "Tirupati",
      "type": "small_airport"
    },
    {
      "code": "SLV",
      "name": "Shimla Airport",
      "lat": 31.0818,
      "lng": 77.068001,
      "city": "Jubbarhatti",
      "type": "small_airport"
    },
    {
      "code": "DGH",
      "name": "Deoghar Airport",
      "lat": 24.446842,
      "lng": 86.704955,
      "city": "Deoghar",
      "type": "small_airport"
    },
    {
      "code": "DIU",
      "name": "Diu Airport",
      "lat": 20.714185,
      "lng": 70.921855,
      "city": "Diu",
      "type": "small_airport"
    },
    {
      "code": "MYQ",
      "name": "Mysore Airport",
      "lat": 12.23,
      "lng": 76.655833,
      "city": "Mysore",
      "type": "small_airport"
    },
    {
      "code": "JRG",
      "name": "Jharsuguda Airport",
      "lat": 21.9135,
      "lng": 84.0504,
      "city": "Odisha",
      "type": "small_airport"
    },
    {
      "code": "HDO",
      "name": "Hindon Airport / Hindon Air Force Station",
      "lat": 28.707701,
      "lng": 77.358902,
      "city": "Ghaziabad",
      "type": "small_airport"
    },
    {
      "code": "JGB",
      "name": "Jagdalpur Airport",
      "lat": 19.074301,
      "lng": 82.036797,
      "city": "Jagdalpur",
      "type": "small_airport"
    },
    {
      "code": "JLG",
      "name": "Jalgaon Airport",
      "lat": 20.962678,
      "lng": 75.627492,
      "city": "Jalgaon",
      "type": "small_airport"
    },
    {
      "code": "PYG",
      "name": "Pakyong Airport",
      "lat": 27.2313,
      "lng": 88.587196,
      "city": "Pakyong",
      "type": "small_airport"
    },
    {
      "code": "RGH",
      "name": "Balurghat Airport",
      "lat": 25.2617,
      "lng": 88.795601,
      "city": "Balurghat",
      "type": "small_airport"
    },
    {
      "code": "IXN",
      "name": "Khowai Airport",
      "lat": 24.061899,
      "lng": 91.603897,
      "city": "Khowai",
      "type": "small_airport"
    },
    {
      "code": "LDA",
      "name": "Malda Airport",
      "lat": 25.01018,
      "lng": 88.126917,
      "city": "Malda",
      "type": "small_airport"
    },
    {
      "code": "IXQ",
      "name": "Kamalpur Airport",
      "lat": 24.134325,
      "lng": 91.810769,
      "city": "Manik Bhandar",
      "type": "small_airport"
    },
    {
      "code": "IXT",
      "name": "Pasighat Airport",
      "lat": 28.064786,
      "lng": 95.336952,
      "city": "Pasighat",
      "type": "small_airport"
    },
    {
      "code": "SWN",
      "name": "Sarsawa Air Force Station",
      "lat": 29.994303,
      "lng": 77.42456,
      "city": "Sherpur Naqeebpur",
      "type": "small_airport"
    },
    {
      "code": "TEI",
      "name": "Tezu Airport",
      "lat": 27.9412002563,
      "lng": 96.1343994141,
      "city": "Tezu",
      "type": "small_airport"
    },
    {
      "code": "TJV",
      "name": "Thanjavur Air Force Station",
      "lat": 10.723835,
      "lng": 79.109457,
      "city": "Thanjavur",
      "type": "small_airport"
    },
    {
      "code": "VDY",
      "name": "Jindal Vijaynagar Airport",
      "lat": 15.175921,
      "lng": 76.63303,
      "city": "Toranagallu",
      "type": "small_airport"
    },
    {
      "code": "GUX",
      "name": "Guna Airport",
      "lat": 24.654699,
      "lng": 77.347298,
      "city": "Madhya Pradesh",
      "type": "small_airport"
    },
    {
      "code": "TNI",
      "name": "Satna Airport",
      "lat": 24.56262,
      "lng": 80.852927,
      "city": "Madhya Pradesh",
      "type": "small_airport"
    },
    {
      "code": "AIP",
      "name": "Adampur Airport",
      "lat": 31.4338,
      "lng": 75.758797,
      "city": "Adampur",
      "type": "small_airport"
    },
    {
      "code": "HRH",
      "name": "Aligarh Airport",
      "lat": 27.861437,
      "lng": 78.145404,
      "city": "Aligarh",
      "type": "small_airport"
    },
    {
      "code": "UKE",
      "name": "Utkela Airport",
      "lat": 20.097778,
      "lng": 83.183333,
      "city": "Bhawanipatna",
      "type": "small_airport"
    },
    {
      "code": "GBI",
      "name": "Kalaburagi Airport",
      "lat": 17.308154,
      "lng": 76.965246,
      "city": "Kalaburagi",
      "type": "small_airport"
    },
    {
      "code": "VSV",
      "name": "Shravasti Airport",
      "lat": 27.499732,
      "lng": 82.032927,
      "city": "Shravasti",
      "type": "small_airport"
    },
    {
      "code": "TCR",
      "name": "Tuticorin Airport",
      "lat": 8.724241,
      "lng": 78.025803,
      "city": "Vagaikulam",
      "type": "small_airport"
    },
    {
      "code": "AZH",
      "name": "Azamgarh Airport",
      "lat": 26.153333,
      "lng": 83.118333,
      "city": "Azamgarh",
      "type": "small_airport"
    },
    {
      "code": "CWK",
      "name": "Chitrakoot Airport",
      "lat": 25.167694,
      "lng": 80.9358,
      "city": "Chitrakoot",
      "type": "small_airport"
    },
    {
      "code": "COH",
      "name": "Cooch Behar Airport",
      "lat": 26.3305,
      "lng": 89.467201,
      "city": "Cooch Behar",
      "type": "small_airport"
    },
    {
      "code": "DEP",
      "name": "Daporijo Airport",
      "lat": 27.9855003357,
      "lng": 94.22280120850002,
      "city": "Daporijo",
      "type": "small_airport"
    },
    {
      "code": "PYB",
      "name": "Jeypore Airport",
      "lat": 18.879549,
      "lng": 82.552478,
      "city": "Jeypore",
      "type": "small_airport"
    },
    {
      "code": "NVY",
      "name": "Neyveli Airport",
      "lat": 11.612956,
      "lng": 79.527382,
      "city": "Neyveli",
      "type": "small_airport"
    },
    {
      "code": "RJI",
      "name": "Rajouri Airport",
      "lat": 33.377899,
      "lng": 74.315201,
      "city": "Rajouri",
      "type": "small_airport"
    },
    {
      "code": "RMD",
      "name": "Basanth Nagar Airport",
      "lat": 18.701,
      "lng": 79.3923,
      "city": "Ramagundam",
      "type": "small_airport"
    },
    {
      "code": "RUP",
      "name": "Rupsi Airport",
      "lat": 26.141867,
      "lng": 89.907892,
      "city": "Rupsi",
      "type": "small_airport"
    },
    {
      "code": "WGC",
      "name": "Warangal Airport",
      "lat": 17.9144,
      "lng": 79.602203,
      "city": "Warangal",
      "type": "small_airport"
    },
    {
      "code": "AMD",
      "name": "Sardar Vallabh Bhai Patel International Airport",
      "lat": 23.0772,
      "lng": 72.634697,
      "city": "Ahmedabad",
      "type": "medium_airport"
    },
    {
      "code": "JAI",
      "name": "Jaipur International Airport",
      "lat": 26.8242,
      "lng": 75.812202,
      "city": "Jaipur",
      "type": "medium_airport"
    },
    {
      "code": "PNQ",
      "name": "Pune Airport / Lohagaon Air Force Station",
      "lat": 18.5821,
      "lng": 73.919701,
      "city": "Pune",
      "type": "medium_airport"
    },
    {
      "code": "VNS",
      "name": "Lal Bahadur Shastri Airport",
      "lat": 25.452129,
      "lng": 82.861805,
      "city": "Varanasi",
      "type": "medium_airport"
    },
    {
      "code": "ATQ",
      "name": "Sri Guru Ram Dass Jee International Airport",
      "lat": 31.7096,
      "lng": 74.797302,
      "city": "Amritsar",
      "type": "medium_airport"
    },
    {
      "code": "BDQ",
      "name": "Vadodara Airport",
      "lat": 22.336201,
      "lng": 73.226303,
      "city": "Vadodara",
      "type": "medium_airport"
    },
    {
      "code": "BBI",
      "name": "Biju Patnaik International Airport",
      "lat": 20.2444,
      "lng": 85.817802,
      "city": "Bhubaneswar",
      "type": "medium_airport"
    },
    {
      "code": "LKO",
      "name": "Chaudhary Charan Singh International Airport",
      "lat": 26.7605991364,
      "lng": 80.8892974854,
      "city": "Lucknow",
      "type": "medium_airport"
    },
    {
      "code": "IXE",
      "name": "Mangalore International Airport",
      "lat": 12.9612998962,
      "lng": 74.8900985718,
      "city": "Mangalore",
      "type": "medium_airport"
    },
    {
      "code": "VTZ",
      "name": "Visakhapatnam Airport",
      "lat": 17.723506,
      "lng": 83.227729,
      "city": "Visakhapatnam",
      "type": "medium_airport"
    },
    {
      "code": "CJB",
      "name": "Coimbatore International Airport",
      "lat": 11.029999733,
      "lng": 77.0434036255,
      "city": "Coimbatore",
      "type": "medium_airport"
    },
    {
      "code": "CCJ",
      "name": "Calicut International Airport",
      "lat": 11.1368,
      "lng": 75.955299,
      "city": "Calicut",
      "type": "medium_airport"
    },
    {
      "code": "JDH",
      "name": "Jodhpur Airport",
      "lat": 26.251100540161133,
      "lng": 73.04889678955078,
      "city": "Jodhpur",
      "type": "medium_airport"
    },
    {
      "code": "IXZ",
      "name": "Veer Savarkar International Airport / INS Utkrosh",
      "lat": 11.641208,
      "lng": 92.729643,
      "city": "Port Blair",
      "type": "medium_airport"
    },
    {
      "code": "BPM",
      "name": "Begumpet Airport",
      "lat": 17.4531,
      "lng": 78.467598,
      "city": "Hyderabad",
      "type": "medium_airport"
    },
    {
      "code": "IXC",
      "name": "Chandigarh International Airport",
      "lat": 30.6735,
      "lng": 76.788498,
      "city": "Chandigarh",
      "type": "medium_airport"
    },
    {
      "code": "GAU",
      "name": "Lokpriya Gopinath Bordoloi International Airport",
      "lat": 26.10610008239746,
      "lng": 91.58589935302734,
      "city": "Guwahati",
      "type": "medium_airport"
    },
    {
      "code": "IXL",
      "name": "Leh Kushok Bakula Rimpochee Airport",
      "lat": 34.135899,
      "lng": 77.546501,
      "city": "Leh",
      "type": "medium_airport"
    },
    {
      "code": "IXB",
      "name": "Bagdogra Airport",
      "lat": 26.68120002746582,
      "lng": 88.32859802246094,
      "city": "Siliguri",
      "type": "medium_airport"
    },
    {
      "code": "IDR",
      "name": "Devi Ahilyabai Holkar Airport",
      "lat": 22.7217998505,
      "lng": 75.8011016846,
      "city": "Indore",
      "type": "medium_airport"
    },
    {
      "code": "UDR",
      "name": "Maharana Pratap Airport",
      "lat": 24.6177005768,
      "lng": 73.89610290530001,
      "city": "Udaipur",
      "type": "medium_airport"
    },
    {
      "code": "IXM",
      "name": "Madurai Airport",
      "lat": 9.83450984955,
      "lng": 78.09339904790001,
      "city": "Madurai",
      "type": "medium_airport"
    },
    {
      "code": "PAT",
      "name": "Jay Prakash Narayan Airport",
      "lat": 25.591299,
      "lng": 85.087997,
      "city": "Patna",
      "type": "medium_airport"
    },
    {
      "code": "SXR",
      "name": "Sheikh ul Alam International Airport",
      "lat": 33.987099,
      "lng": 74.7742,
      "city": "Srinagar",
      "type": "medium_airport"
    },
    {
      "code": "STV",
      "name": "Surat Airport",
      "lat": 21.1141,
      "lng": 72.741798,
      "city": "Surat",
      "type": "medium_airport"
    },
    {
      "code": "NAG",
      "name": "Dr. Babasaheb Ambedkar International Airport",
      "lat": 21.092199,
      "lng": 79.047203,
      "city": "Nagpur",
      "type": "medium_airport"
    },
    {
      "code": "BHO",
      "name": "Raja Bhoj International Airport",
      "lat": 23.2875003815,
      "lng": 77.3374023438,
      "city": "Bhopal",
      "type": "medium_airport"
    },
    {
      "code": "BHJ",
      "name": "Bhuj Airport",
      "lat": 23.2877998352,
      "lng": 69.6701965332,
      "city": "Bhuj",
      "type": "medium_airport"
    },
    {
      "code": "VGA",
      "name": "Vijayawada Airport",
      "lat": 16.530399,
      "lng": 80.796799,
      "city": "Gannavaram",
      "type": "medium_airport"
    },
    {
      "code": "IXU",
      "name": "Aurangabad Airport",
      "lat": 19.862699508666992,
      "lng": 75.39810180664062,
      "city": "Aurangabad",
      "type": "medium_airport"
    },
    {
      "code": "IMF",
      "name": "Imphal Airport",
      "lat": 24.7600002289,
      "lng": 93.896697998,
      "city": "Imphal",
      "type": "medium_airport"
    },
    {
      "code": "IXJ",
      "name": "Jammu Airport",
      "lat": 32.688849,
      "lng": 74.838152,
      "city": "Jammu",
      "type": "medium_airport"
    },
    {
      "code": "IXR",
      "name": "Birsa Munda Airport",
      "lat": 23.314300537100003,
      "lng": 85.3217010498,
      "city": "Ranchi",
      "type": "medium_airport"
    },
    {
      "code": "AGR",
      "name": "Agra Airport / Agra Air Force Station",
      "lat": 27.157683,
      "lng": 77.960942,
      "city": "Agra",
      "type": "medium_airport"
    },
    {
      "code": "KUU",
      "name": "Kullu Manali Airport",
      "lat": 31.876699,
      "lng": 77.154404,
      "city": "Bhuntar",
      "type": "medium_airport"
    },
    {
      "code": "DIB",
      "name": "Dibrugarh Airport",
      "lat": 27.4839000702,
      "lng": 95.0168991089,
      "city": "Dibrugarh",
      "type": "medium_airport"
    },
    {
      "code": "CNN",
      "name": "Kannur International Airport",
      "lat": 11.918614,
      "lng": 75.547211,
      "city": "Kannur",
      "type": "medium_airport"
    },
    {
      "code": "RPR",
      "name": "Swami Vivekananda Airport",
      "lat": 21.180401,
      "lng": 81.7388,
      "city": "Raipur",
      "type": "medium_airport"
    },
    {
      "code": "IXA",
      "name": "Agartala - Maharaja Bir Bikram Airport",
      "lat": 23.886999,
      "lng": 91.240402,
      "city": "Agartala",
      "type": "medium_airport"
    },
    {
      "code": "BHU",
      "name": "Bhavnagar Airport",
      "lat": 21.752199173,
      "lng": 72.1852035522,
      "city": "Bhavnagar",
      "type": "medium_airport"
    },
    {
      "code": "JLR",
      "name": "Jabalpur Airport",
      "lat": 23.177799,
      "lng": 80.052002,
      "city": "Jabalpur",
      "type": "medium_airport"
    },
    {
      "code": "JRH",
      "name": "Jorhat Airport",
      "lat": 26.730456,
      "lng": 94.175416,
      "city": "Jorhat",
      "type": "medium_airport"
    },
    {
      "code": "RJA",
      "name": "Rajahmundry Airport",
      "lat": 17.105799,
      "lng": 81.813204,
      "city": "Madhurapudi",
      "type": "medium_airport"
    },
    {
      "code": "RAJ",
      "name": "Rajkot Airport",
      "lat": 22.3092,
      "lng": 70.779503,
      "city": "Rajkot",
      "type": "medium_airport"
    },
    {
      "code": "HJR",
      "name": "Khajuraho Airport",
      "lat": 24.8172,
      "lng": 79.918602,
      "city": "Khajuraho",
      "type": "medium_airport"
    },
    {
      "code": "ISK",
      "name": "Nashik Airport",
      "lat": 20.119101,
      "lng": 73.912903,
      "city": "Nasik",
      "type": "medium_airport"
    },
    {
      "code": "DED",
      "name": "Dehradun Jolly Grant Airport",
      "lat": 30.189243,
      "lng": 78.176651,
      "city": "Dehradun (Jauligrant)",
      "type": "medium_airport"
    },
    {
      "code": "JGA",
      "name": "Jamnagar Airport",
      "lat": 22.465499877929688,
      "lng": 70.01260375976562,
      "city": "Jamnagar",
      "type": "medium_airport"
    },
    {
      "code": "IXS",
      "name": "Silchar Airport",
      "lat": 24.9129009247,
      "lng": 92.9786987305,
      "city": "Silchar",
      "type": "medium_airport"
    },
    {
      "code": "TRZ",
      "name": "Tiruchirappalli International Airport",
      "lat": 10.766223,
      "lng": 78.71774,
      "city": "Tiruchirappalli",
      "type": "medium_airport"
    },
    {
      "code": "AGX",
      "name": "Agatti Airport",
      "lat": 10.8237,
      "lng": 72.176003,
      "city": "Agatti",
      "type": "medium_airport"
    },
    {
      "code": "AJL",
      "name": "Lengpui Airport",
      "lat": 23.840599,
      "lng": 92.619698,
      "city": "Aizawl (Lengpui)",
      "type": "medium_airport"
    },
    {
      "code": "IXD",
      "name": "Prayagraj Airport",
      "lat": 25.4401,
      "lng": 81.733902,
      "city": "Allahabad",
      "type": "medium_airport"
    },
    {
      "code": "DBR",
      "name": "Darbhanga Airport",
      "lat": 26.192801,
      "lng": 85.916901,
      "city": "Darbhanga",
      "type": "medium_airport"
    },
    {
      "code": "GDB",
      "name": "Gondia Airport",
      "lat": 21.526817,
      "lng": 80.290347,
      "city": "Gondia",
      "type": "medium_airport"
    },
    {
      "code": "KNU",
      "name": "Kanpur Airport",
      "lat": 26.404301,
      "lng": 80.410103,
      "city": "Kanpur",
      "type": "medium_airport"
    },
    {
      "code": "IXK",
      "name": "Keshod Airport",
      "lat": 21.317101,
      "lng": 70.270401,
      "city": "Keshod",
      "type": "medium_airport"
    },
    {
      "code": "PUT",
      "name": "Sri Sathya Sai Airport",
      "lat": 14.1492996216,
      "lng": 77.7910995483,
      "city": "Puttaparthi",
      "type": "medium_airport"
    },
    {
      "code": "TEZ",
      "name": "Tezpur Airport",
      "lat": 26.7091007232666,
      "lng": 92.78469848632812,
      "city": "Assam",
      "type": "medium_airport"
    },
    {
      "code": "IXG",
      "name": "Belagavi Airport",
      "lat": 15.8593,
      "lng": 74.618301,
      "city": "Belgaum",
      "type": "medium_airport"
    },
    {
      "code": "GAY",
      "name": "Gaya Airport",
      "lat": 24.744301,
      "lng": 84.951202,
      "city": "Gaya",
      "type": "medium_airport"
    },
    {
      "code": "GWL",
      "name": "Gwalior Airport",
      "lat": 26.29330062866211,
      "lng": 78.22779846191406,
      "city": "Gwalior",
      "type": "medium_airport"
    },
    {
      "code": "PBD",
      "name": "Porbandar Airport",
      "lat": 21.649524,
      "lng": 69.656405,
      "city": "Porbandar",
      "type": "medium_airport"
    },
    {
      "code": "RDP",
      "name": "Kazi Nazrul Islam Airport",
      "lat": 23.6225,
      "lng": 87.243,
      "city": "Durgapur",
      "type": "medium_airport"
    },
    {
      "code": "IXY",
      "name": "Kandla Airport",
      "lat": 23.1127,
      "lng": 70.100304,
      "city": "Kandla",
      "type": "medium_airport"
    },
    {
      "code": "IXW",
      "name": "Sonari Airport",
      "lat": 22.813706,
      "lng": 86.168981,
      "city": "Jamshedpur",
      "type": "medium_airport"
    },
    {
      "code": "KLH",
      "name": "Kolhapur Airport",
      "lat": 16.6647,
      "lng": 74.289398,
      "city": "Kolhapur",
      "type": "medium_airport"
    },
    {
      "code": "SHL",
      "name": "Shillong Airport",
      "lat": 25.70359992980957,
      "lng": 91.97869873046876,
      "city": "Shillong",
      "type": "medium_airport"
    },
    {
      "code": "JSA",
      "name": "Jaisalmer Airport",
      "lat": 26.8887,
      "lng": 70.864998,
      "city": "Rajasthan",
      "type": "medium_airport"
    },
    {
      "code": "KQH",
      "name": "Kishangarh Airport Ajmer",
      "lat": 26.591007,
      "lng": 74.812956,
      "city": "Ajmer (Kishangarh)",
      "type": "medium_airport"
    },
    {
      "code": "PAB",
      "name": "Bilaspur Airport",
      "lat": 21.9884,
      "lng": 82.111,
      "city": "Bilaspur",
      "type": "medium_airport"
    },
    {
      "code": "HSS",
      "name": "Hisar Airport",
      "lat": 29.179399,
      "lng": 75.755302,
      "city": "Hisar",
      "type": "medium_airport"
    },
    {
      "code": "CDP",
      "name": "Kadapa Airport",
      "lat": 14.513154,
      "lng": 78.769183,
      "city": "Kadapa",
      "type": "medium_airport"
    },
    {
      "code": "SAG",
      "name": "Shirdi Airport",
      "lat": 19.688752,
      "lng": 74.377354,
      "city": "Kakadi",
      "type": "medium_airport"
    },
    {
      "code": "DHM",
      "name": "Kangra Airport",
      "lat": 32.164902,
      "lng": 76.263018,
      "city": "Kangra",
      "type": "medium_airport"
    },
    {
      "code": "MZS",
      "name": "Moradabad Airport",
      "lat": 28.81746,
      "lng": 78.92187,
      "city": "Moradabad",
      "type": "medium_airport"
    },
    {
      "code": "IXP",
      "name": "Pathankot Airport",
      "lat": 32.233611,
      "lng": 75.634444,
      "city": "Pathankot",
      "type": "medium_airport"
    },
    {
      "code": "REW",
      "name": "Rewa Airport, Chorhata, REWA",
      "lat": 24.503401,
      "lng": 81.220299,
      "city": "Rewa",
      "type": "medium_airport"
    },
    {
      "code": "DBD",
      "name": "Dhanbad Airport",
      "lat": 23.834,
      "lng": 86.425301,
      "city": "Bihar",
      "type": "medium_airport"
    },
    {
      "code": "BUP",
      "name": "Bhatinda Air Force Station",
      "lat": 30.2701,
      "lng": 74.755798,
      "city": "Punjab",
      "type": "medium_airport"
    },
    {
      "code": "BEP",
      "name": "Bellary Airport",
      "lat": 15.162799835205078,
      "lng": 76.88279724121094,
      "city": "Bellary",
      "type": "medium_airport"
    },
    {
      "code": "IXX",
      "name": "Bidar Airport / Bidar Air Force Station",
      "lat": 17.9081,
      "lng": 77.487099,
      "city": "Bidar",
      "type": "medium_airport"
    },
    {
      "code": "IXH",
      "name": "Kailashahar Airport",
      "lat": 24.308657,
      "lng": 92.00768,
      "city": "Kailashahar",
      "type": "medium_airport"
    },
    {
      "code": "KTU",
      "name": "Kota Airport",
      "lat": 25.160200119,
      "lng": 75.84559631350001,
      "city": "Kota",
      "type": "medium_airport"
    },
    {
      "code": "RRK",
      "name": "Rourkela Airport",
      "lat": 22.256571,
      "lng": 84.815193,
      "city": "Rourkela",
      "type": "medium_airport"
    },
    {
      "code": "DMU",
      "name": "Dimapur Airport",
      "lat": 25.8838996887,
      "lng": 93.7711029053,
      "city": "Dimapur",
      "type": "medium_airport"
    },
    {
      "code": "IXI",
      "name": "Lilabari North Lakhimpur Airport",
      "lat": 27.295682,
      "lng": 94.097266,
      "city": "Lilabari",
      "type": "medium_airport"
    },
    {
      "code": "AHA",
      "name": "Maa Mahamaya Airport",
      "lat": 22.98753,
      "lng": 83.19612,
      "city": "Ambikapur",
      "type": "medium_airport"
    },
    {
      "code": "BEK",
      "name": "Bareilly Air Force Station",
      "lat": 28.4221,
      "lng": 79.450798,
      "city": "Bareilly",
      "type": "medium_airport"
    },
    {
      "code": "SDW",
      "name": "Sindhudurg Airport",
      "lat": 16.002552,
      "lng": 73.529846,
      "city": "Chipi",
      "type": "medium_airport"
    },
    {
      "code": "AYJ",
      "name": "Ayodhya Airport",
      "lat": 26.751283,
      "lng": 82.155295,
      "city": "Faizabad",
      "type": "medium_airport"
    },
    {
      "code": "GOP",
      "name": "Gorakhpur Airport",
      "lat": 26.7397003174,
      "lng": 83.4496994019,
      "city": "Gorakhpur",
      "type": "medium_airport"
    },
    {
      "code": "HGI",
      "name": "Itanagar Donyi Polo Hollongi Airport",
      "lat": 26.96683,
      "lng": 93.638792,
      "city": "Hollongi",
      "type": "medium_airport"
    },
    {
      "code": "HBX",
      "name": "Hubli Airport",
      "lat": 15.3617,
      "lng": 75.0849,
      "city": "Hubli",
      "type": "medium_airport"
    },
    {
      "code": "LTU",
      "name": "Murod Kond Airport",
      "lat": 18.411501,
      "lng": 76.464699,
      "city": "Latur",
      "type": "medium_airport"
    },
    {
      "code": "NDC",
      "name": "Nanded Airport",
      "lat": 19.1833,
      "lng": 77.316704,
      "city": "Nanded",
      "type": "medium_airport"
    },
    {
      "code": "KJB",
      "name": "Kurnool Airport",
      "lat": 15.716288,
      "lng": 78.16923,
      "city": "Orvakal",
      "type": "medium_airport"
    },
    {
      "code": "PGH",
      "name": "Pantnagar Airport",
      "lat": 29.0334,
      "lng": 79.473701,
      "city": "Pantnagar",
      "type": "medium_airport"
    },
    {
      "code": "PNY",
      "name": "Pondicherry Airport",
      "lat": 11.968,
      "lng": 79.812,
      "city": "Puducherry (Pondicherry)",
      "type": "medium_airport"
    },
    {
      "code": "IXV",
      "name": "Along Airport",
      "lat": 28.17530059814453,
      "lng": 94.802001953125,
      "city": "Arunachal Pradesh",
      "type": "medium_airport"
    },
    {
      "code": "RTC",
      "name": "Ratnagiri Airport",
      "lat": 17.013599,
      "lng": 73.327797,
      "city": "Maharashtra",
      "type": "medium_airport"
    },
    {
      "code": "LUH",
      "name": "Ludhiana Airport",
      "lat": 30.854700088500977,
      "lng": 75.95259857177734,
      "city": "Punjab",
      "type": "medium_airport"
    },
    {
      "code": "AKD",
      "name": "Akola Airport",
      "lat": 20.698931,
      "lng": 77.056883,
      "city": "Akola",
      "type": "medium_airport"
    },
    {
      "code": "BKB",
      "name": "Nal Airport",
      "lat": 28.070601,
      "lng": 73.207199,
      "city": "Bikaner",
      "type": "medium_airport"
    },
    {
      "code": "NMB",
      "name": "Daman Airport",
      "lat": 20.434401,
      "lng": 72.843201,
      "city": "Daman",
      "type": "medium_airport"
    },
    {
      "code": "CBD",
      "name": "Car Nicobar Air Force Base",
      "lat": 9.153056,
      "lng": 92.819273,
      "city": "IAF Camp",
      "type": "medium_airport"
    },
    {
      "code": "KBK",
      "name": "Kushinagar International Airport",
      "lat": 26.776534,
      "lng": 83.889214,
      "city": "Kushinagar",
      "type": "medium_airport"
    },
    {
      "code": "MZU",
      "name": "Muzaffarpur Airport",
      "lat": 26.119101,
      "lng": 85.313698,
      "city": "Muzaffarpur",
      "type": "medium_airport"
    },
    {
      "code": "SXV",
      "name": "Salem Airport",
      "lat": 11.78330039978,
      "lng": 78.06559753418,
      "city": "Salem",
      "type": "medium_airport"
    },
    {
      "code": "RQY",
      "name": "Rashtrakavi Kuvempu Airport",
      "lat": 13.858024,
      "lng": 75.618868,
      "city": "Shimoga",
      "type": "medium_airport"
    },
    {
      "code": "SSE",
      "name": "Solapur Airport",
      "lat": 17.6280002594,
      "lng": 75.93479919430001,
      "city": "Solapur",
      "type": "medium_airport"
    },
    {
      "code": "ZER",
      "name": "Ziro Airport",
      "lat": 27.588301,
      "lng": 93.828102,
      "city": "Ziro",
      "type": "medium_airport"
    },
    {
      "code": "DEL",
      "name": "Indira Gandhi International Airport",
      "lat": 28.55563,
      "lng": 77.09519,
      "city": "New Delhi",
      "type": "large_airport"
    },
    {
      "code": "BOM",
      "name": "Chhatrapati Shivaji International Airport",
      "lat": 19.0886993408,
      "lng": 72.8678970337,
      "city": "Mumbai",
      "type": "large_airport"
    },
    {
      "code": "MAA",
      "name": "Chennai International Airport",
      "lat": 12.990005,
      "lng": 80.169296,
      "city": "Chennai",
      "type": "large_airport"
    },
    {
      "code": "BLR",
      "name": "Kempegowda International Airport",
      "lat": 13.1979,
      "lng": 77.706299,
      "city": "Bangalore",
      "type": "large_airport"
    },
    {
      "code": "CCU",
      "name": "Netaji Subhash Chandra Bose International Airport",
      "lat": 22.654699,
      "lng": 88.446701,
      "city": "Kolkata",
      "type": "large_airport"
    },
    {
      "code": "HYD",
      "name": "Rajiv Gandhi International Airport",
      "lat": 17.231318,
      "lng": 78.429855,
      "city": "Hyderabad",
      "type": "large_airport"
    },
    {
      "code": "GOI",
      "name": "Dabolim Airport",
      "lat": 15.3808,
      "lng": 73.831398,
      "city": "Vasco da Gama",
      "type": "large_airport"
    },
    {
      "code": "COK",
      "name": "Cochin International Airport",
      "lat": 10.151047,
      "lng": 76.400838,
      "city": "Kochi",
      "type": "large_airport"
    },
    {
      "code": "TRV",
      "name": "Thiruvananthapuram International Airport",
      "lat": 8.48212,
      "lng": 76.920097,
      "city": "Thiruvananthapuram",
      "type": "large_airport"
    },
    {
      "code": "GOX",
      "name": "Manohar International Airport",
      "lat": 15.744257,
      "lng": 73.860625,
      "city": "Mopa",
      "type": "large_airport"
    },
    {
      "code": "HSR",
      "name": "Rajkot International Airport",
      "lat": 22.378824,
      "lng": 71.039391,
      "city": "Rajkot",
      "type": "large_airport"
    },
    {
      "code": "NMI",
      "name": "Navi Mumbai International Airport",
      "lat": 18.984597,
      "lng": 73.065253,
      "city": "Navi Mumbai",
      "type": "large_airport"
    }
  ],
  "flights": [
    {
      "id": 1,
      "airline": "SQ",
      "flightNumber": "AI427",
      "origin": "TIR",
      "destination": "PYG",
      "departureTime": "04:51",
      "arrivalTime": "21:56",
      "duration": 118,
      "price": 5191,
      "seats": 124,
      "distance": 1780
    },
    {
      "id": 2,
      "airline": "KL",
      "flightNumber": "EK369",
      "origin": "TIR",
      "destination": "BUP",
      "departureTime": "03:03",
      "arrivalTime": "10:44",
      "duration": 127,
      "price": 5753,
      "seats": 115,
      "distance": 1914
    },
    {
      "id": 3,
      "airline": "AF",
      "flightNumber": "EK936",
      "origin": "TIR",
      "destination": "LDA",
      "departureTime": "01:19",
      "arrivalTime": "23:58",
      "duration": 103,
      "price": 5702,
      "seats": 128,
      "distance": 1551
    },
    {
      "id": 4,
      "airline": "LH",
      "flightNumber": "LH795",
      "origin": "SLV",
      "destination": "DIB",
      "departureTime": "05:03",
      "arrivalTime": "04:29",
      "duration": 118,
      "price": 6453,
      "seats": 210,
      "distance": 1783
    },
    {
      "id": 5,
      "airline": "BA",
      "flightNumber": "EK764",
      "origin": "SLV",
      "destination": "DIB",
      "departureTime": "23:57",
      "arrivalTime": "16:10",
      "duration": 118,
      "price": 5877,
      "seats": 234,
      "distance": 1783
    },
    {
      "id": 6,
      "airline": "EK",
      "flightNumber": "BA365",
      "origin": "DGH",
      "destination": "SLV",
      "departureTime": "23:09",
      "arrivalTime": "23:20",
      "duration": 80,
      "price": 5386,
      "seats": 277,
      "distance": 1200
    },
    {
      "id": 7,
      "airline": "BA",
      "flightNumber": "AI956",
      "origin": "DGH",
      "destination": "BHU",
      "departureTime": "06:46",
      "arrivalTime": "07:57",
      "duration": 100,
      "price": 6384,
      "seats": 114,
      "distance": 1514
    },
    {
      "id": 8,
      "airline": "BA",
      "flightNumber": "LH607",
      "origin": "DIU",
      "destination": "RQY",
      "departureTime": "02:49",
      "arrivalTime": "07:56",
      "duration": 60,
      "price": 4513,
      "seats": 193,
      "distance": 910
    },
    {
      "id": 9,
      "airline": "AI",
      "flightNumber": "QF768",
      "origin": "DIU",
      "destination": "PBD",
      "departureTime": "16:14",
      "arrivalTime": "20:48",
      "duration": 11,
      "price": 3211,
      "seats": 53,
      "distance": 167
    },
    {
      "id": 10,
      "airline": "QF",
      "flightNumber": "QF483",
      "origin": "MYQ",
      "destination": "NMB",
      "departureTime": "18:03",
      "arrivalTime": "10:36",
      "duration": 66,
      "price": 3649,
      "seats": 128,
      "distance": 998
    },
    {
      "id": 11,
      "airline": "QF",
      "flightNumber": "AF396",
      "origin": "MYQ",
      "destination": "UKE",
      "departureTime": "11:45",
      "arrivalTime": "03:53",
      "duration": 74,
      "price": 5313,
      "seats": 152,
      "distance": 1118
    },
    {
      "id": 12,
      "airline": "AI",
      "flightNumber": "QF339",
      "origin": "MYQ",
      "destination": "NMB",
      "departureTime": "06:27",
      "arrivalTime": "14:56",
      "duration": 66,
      "price": 3571,
      "seats": 53,
      "distance": 998
    },
    {
      "id": 13,
      "airline": "QF",
      "flightNumber": "KL787",
      "origin": "JRG",
      "destination": "LTU",
      "departureTime": "12:02",
      "arrivalTime": "17:48",
      "duration": 58,
      "price": 4114,
      "seats": 117,
      "distance": 882
    },
    {
      "id": 14,
      "airline": "EK",
      "flightNumber": "AF563",
      "origin": "JRG",
      "destination": "BPM",
      "departureTime": "12:47",
      "arrivalTime": "17:27",
      "duration": 51,
      "price": 5031,
      "seats": 136,
      "distance": 766
    },
    {
      "id": 15,
      "airline": "EK",
      "flightNumber": "SQ548",
      "origin": "HDO",
      "destination": "JRH",
      "departureTime": "22:31",
      "arrivalTime": "00:00",
      "duration": 111,
      "price": 6284,
      "seats": 59,
      "distance": 1668
    },
    {
      "id": 16,
      "airline": "KL",
      "flightNumber": "EK825",
      "origin": "HDO",
      "destination": "LTU",
      "departureTime": "23:10",
      "arrivalTime": "02:23",
      "duration": 76,
      "price": 5538,
      "seats": 150,
      "distance": 1148
    },
    {
      "id": 17,
      "airline": "SQ",
      "flightNumber": "QF955",
      "origin": "JGB",
      "destination": "AJL",
      "departureTime": "08:49",
      "arrivalTime": "06:15",
      "duration": 81,
      "price": 4788,
      "seats": 117,
      "distance": 1216
    },
    {
      "id": 18,
      "airline": "LH",
      "flightNumber": "KL202",
      "origin": "JGB",
      "destination": "DGH",
      "departureTime": "09:04",
      "arrivalTime": "23:40",
      "duration": 51,
      "price": 4334,
      "seats": 186,
      "distance": 767
    },
    {
      "id": 19,
      "airline": "KL",
      "flightNumber": "AF924",
      "origin": "JGB",
      "destination": "IXS",
      "departureTime": "13:24",
      "arrivalTime": "13:44",
      "duration": 86,
      "price": 5621,
      "seats": 105,
      "distance": 1300
    },
    {
      "id": 20,
      "airline": "BA",
      "flightNumber": "AF441",
      "origin": "JLG",
      "destination": "VSV",
      "departureTime": "13:06",
      "arrivalTime": "04:06",
      "duration": 64,
      "price": 3981,
      "seats": 85,
      "distance": 974
    },
    {
      "id": 21,
      "airline": "QF",
      "flightNumber": "SQ346",
      "origin": "JLG",
      "destination": "PAB",
      "departureTime": "13:19",
      "arrivalTime": "02:15",
      "duration": 45,
      "price": 3760,
      "seats": 140,
      "distance": 680
    },
    {
      "id": 22,
      "airline": "EK",
      "flightNumber": "KL501",
      "origin": "JLG",
      "destination": "IXN",
      "departureTime": "18:21",
      "arrivalTime": "22:32",
      "duration": 111,
      "price": 4961,
      "seats": 86,
      "distance": 1675
    },
    {
      "id": 23,
      "airline": "SQ",
      "flightNumber": "SQ312",
      "origin": "JLG",
      "destination": "GDB",
      "departureTime": "09:04",
      "arrivalTime": "06:49",
      "duration": 32,
      "price": 2758,
      "seats": 164,
      "distance": 487
    },
    {
      "id": 24,
      "airline": "LH",
      "flightNumber": "AF470",
      "origin": "PYG",
      "destination": "RDP",
      "departureTime": "17:37",
      "arrivalTime": "00:48",
      "duration": 28,
      "price": 4303,
      "seats": 253,
      "distance": 423
    },
    {
      "id": 25,
      "airline": "AF",
      "flightNumber": "LH387",
      "origin": "RGH",
      "destination": "VGA",
      "departureTime": "02:32",
      "arrivalTime": "05:45",
      "duration": 85,
      "price": 4097,
      "seats": 186,
      "distance": 1277
    },
    {
      "id": 26,
      "airline": "LH",
      "flightNumber": "BA964",
      "origin": "RGH",
      "destination": "JLR",
      "departureTime": "21:24",
      "arrivalTime": "07:35",
      "duration": 61,
      "price": 4396,
      "seats": 78,
      "distance": 916
    },
    {
      "id": 27,
      "airline": "EK",
      "flightNumber": "EK593",
      "origin": "RGH",
      "destination": "SWN",
      "departureTime": "01:51",
      "arrivalTime": "18:54",
      "duration": 82,
      "price": 5063,
      "seats": 98,
      "distance": 1236
    },
    {
      "id": 28,
      "airline": "LH",
      "flightNumber": "SQ775",
      "origin": "RGH",
      "destination": "DEL",
      "departureTime": "05:41",
      "arrivalTime": "07:28",
      "duration": 81,
      "price": 5713,
      "seats": 75,
      "distance": 1215
    },
    {
      "id": 29,
      "airline": "SQ",
      "flightNumber": "KL862",
      "origin": "IXN",
      "destination": "VSV",
      "departureTime": "17:26",
      "arrivalTime": "13:19",
      "duration": 68,
      "price": 4938,
      "seats": 290,
      "distance": 1031
    },
    {
      "id": 30,
      "airline": "BA",
      "flightNumber": "QF196",
      "origin": "IXN",
      "destination": "GOI",
      "departureTime": "19:05",
      "arrivalTime": "20:42",
      "duration": 139,
      "price": 6786,
      "seats": 285,
      "distance": 2092
    },
    {
      "id": 31,
      "airline": "SQ",
      "flightNumber": "LH972",
      "origin": "LDA",
      "destination": "AIP",
      "departureTime": "16:14",
      "arrivalTime": "13:35",
      "duration": 93,
      "price": 5923,
      "seats": 183,
      "distance": 1405
    },
    {
      "id": 32,
      "airline": "AI",
      "flightNumber": "AF706",
      "origin": "IXQ",
      "destination": "GUX",
      "departureTime": "12:33",
      "arrivalTime": "22:08",
      "duration": 97,
      "price": 6417,
      "seats": 71,
      "distance": 1465
    },
    {
      "id": 33,
      "airline": "EK",
      "flightNumber": "AF216",
      "origin": "IXT",
      "destination": "RJA",
      "departureTime": "01:04",
      "arrivalTime": "21:44",
      "duration": 122,
      "price": 5460,
      "seats": 203,
      "distance": 1844
    },
    {
      "id": 34,
      "airline": "LH",
      "flightNumber": "LH119",
      "origin": "IXT",
      "destination": "IXD",
      "departureTime": "03:51",
      "arrivalTime": "12:38",
      "duration": 92,
      "price": 5791,
      "seats": 231,
      "distance": 1381
    },
    {
      "id": 35,
      "airline": "KL",
      "flightNumber": "SQ311",
      "origin": "IXT",
      "destination": "CCU",
      "departureTime": "16:10",
      "arrivalTime": "15:33",
      "duration": 61,
      "price": 4037,
      "seats": 141,
      "distance": 916
    },
    {
      "id": 36,
      "airline": "SQ",
      "flightNumber": "LH482",
      "origin": "IXT",
      "destination": "REW",
      "departureTime": "22:24",
      "arrivalTime": "00:09",
      "duration": 97,
      "price": 4423,
      "seats": 70,
      "distance": 1461
    },
    {
      "id": 37,
      "airline": "BA",
      "flightNumber": "AI983",
      "origin": "SWN",
      "destination": "IXY",
      "departureTime": "07:55",
      "arrivalTime": "07:29",
      "duration": 70,
      "price": 3643,
      "seats": 250,
      "distance": 1055
    },
    {
      "id": 38,
      "airline": "QF",
      "flightNumber": "EK619",
      "origin": "TEI",
      "destination": "IXB",
      "departureTime": "04:00",
      "arrivalTime": "15:25",
      "duration": 52,
      "price": 4042,
      "seats": 264,
      "distance": 783
    },
    {
      "id": 39,
      "airline": "QF",
      "flightNumber": "BA700",
      "origin": "TJV",
      "destination": "CDP",
      "departureTime": "06:36",
      "arrivalTime": "14:17",
      "duration": 28,
      "price": 4120,
      "seats": 68,
      "distance": 422
    },
    {
      "id": 40,
      "airline": "LH",
      "flightNumber": "KL559",
      "origin": "TJV",
      "destination": "GDB",
      "departureTime": "09:32",
      "arrivalTime": "06:57",
      "duration": 80,
      "price": 4479,
      "seats": 136,
      "distance": 1207
    },
    {
      "id": 41,
      "airline": "KL",
      "flightNumber": "SQ143",
      "origin": "TJV",
      "destination": "VSV",
      "departureTime": "18:31",
      "arrivalTime": "05:02",
      "duration": 126,
      "price": 5937,
      "seats": 135,
      "distance": 1890
    },
    {
      "id": 42,
      "airline": "KL",
      "flightNumber": "BA937",
      "origin": "VDY",
      "destination": "DIU",
      "departureTime": "20:57",
      "arrivalTime": "10:34",
      "duration": 57,
      "price": 3737,
      "seats": 53,
      "distance": 862
    },
    {
      "id": 43,
      "airline": "QF",
      "flightNumber": "KL464",
      "origin": "VDY",
      "destination": "JDH",
      "departureTime": "14:58",
      "arrivalTime": "23:07",
      "duration": 85,
      "price": 5999,
      "seats": 281,
      "distance": 1286
    },
    {
      "id": 44,
      "airline": "SQ",
      "flightNumber": "QF906",
      "origin": "VDY",
      "destination": "KBK",
      "departureTime": "11:30",
      "arrivalTime": "02:52",
      "duration": 99,
      "price": 5495,
      "seats": 146,
      "distance": 1492
    },
    {
      "id": 45,
      "airline": "QF",
      "flightNumber": "BA504",
      "origin": "GUX",
      "destination": "NMI",
      "departureTime": "21:34",
      "arrivalTime": "13:59",
      "duration": 51,
      "price": 4525,
      "seats": 177,
      "distance": 769
    },
    {
      "id": 46,
      "airline": "AF",
      "flightNumber": "BA107",
      "origin": "GUX",
      "destination": "VNS",
      "departureTime": "08:46",
      "arrivalTime": "04:04",
      "duration": 37,
      "price": 3266,
      "seats": 138,
      "distance": 562
    },
    {
      "id": 47,
      "airline": "BA",
      "flightNumber": "EK591",
      "origin": "TNI",
      "destination": "WGC",
      "departureTime": "21:47",
      "arrivalTime": "10:16",
      "duration": 50,
      "price": 4849,
      "seats": 65,
      "distance": 750
    },
    {
      "id": 48,
      "airline": "KL",
      "flightNumber": "BA187",
      "origin": "TNI",
      "destination": "GOI",
      "departureTime": "18:40",
      "arrivalTime": "15:09",
      "duration": 83,
      "price": 5696,
      "seats": 150,
      "distance": 1256
    },
    {
      "id": 49,
      "airline": "EK",
      "flightNumber": "BA791",
      "origin": "TNI",
      "destination": "HSS",
      "departureTime": "22:33",
      "arrivalTime": "23:26",
      "duration": 48,
      "price": 4329,
      "seats": 170,
      "distance": 720
    },
    {
      "id": 50,
      "airline": "BA",
      "flightNumber": "AF603",
      "origin": "AIP",
      "destination": "IXW",
      "departureTime": "08:26",
      "arrivalTime": "19:52",
      "duration": 93,
      "price": 5516,
      "seats": 107,
      "distance": 1405
    },
    {
      "id": 51,
      "airline": "KL",
      "flightNumber": "BA263",
      "origin": "AIP",
      "destination": "SAG",
      "departureTime": "08:50",
      "arrivalTime": "23:24",
      "duration": 87,
      "price": 4301,
      "seats": 256,
      "distance": 1313
    },
    {
      "id": 52,
      "airline": "EK",
      "flightNumber": "QF864",
      "origin": "AIP",
      "destination": "MZS",
      "departureTime": "23:52",
      "arrivalTime": "08:52",
      "duration": 28,
      "price": 3421,
      "seats": 59,
      "distance": 420
    },
    {
      "id": 53,
      "airline": "BA",
      "flightNumber": "AF513",
      "origin": "AIP",
      "destination": "SXV",
      "departureTime": "19:40",
      "arrivalTime": "12:09",
      "duration": 146,
      "price": 7593,
      "seats": 199,
      "distance": 2197
    },
    {
      "id": 54,
      "airline": "BA",
      "flightNumber": "AF746",
      "origin": "HRH",
      "destination": "TEI",
      "departureTime": "16:40",
      "arrivalTime": "05:42",
      "duration": 117,
      "price": 6505,
      "seats": 82,
      "distance": 1766
    },
    {
      "id": 55,
      "airline": "AF",
      "flightNumber": "SQ393",
      "origin": "UKE",
      "destination": "ISK",
      "departureTime": "13:16",
      "arrivalTime": "05:00",
      "duration": 64,
      "price": 4258,
      "seats": 69,
      "distance": 967
    },
    {
      "id": 56,
      "airline": "SQ",
      "flightNumber": "KL401",
      "origin": "UKE",
      "destination": "CJB",
      "departureTime": "02:38",
      "arrivalTime": "23:55",
      "duration": 80,
      "price": 4561,
      "seats": 69,
      "distance": 1203
    },
    {
      "id": 57,
      "airline": "SQ",
      "flightNumber": "KL268",
      "origin": "UKE",
      "destination": "GWL",
      "departureTime": "21:34",
      "arrivalTime": "11:15",
      "duration": 56,
      "price": 4833,
      "seats": 120,
      "distance": 854
    },
    {
      "id": 58,
      "airline": "BA",
      "flightNumber": "QF908",
      "origin": "GBI",
      "destination": "JDH",
      "departureTime": "04:16",
      "arrivalTime": "06:22",
      "duration": 71,
      "price": 5029,
      "seats": 203,
      "distance": 1073
    },
    {
      "id": 59,
      "airline": "QF",
      "flightNumber": "AI409",
      "origin": "GBI",
      "destination": "VNS",
      "departureTime": "03:15",
      "arrivalTime": "02:49",
      "duration": 72,
      "price": 5608,
      "seats": 189,
      "distance": 1091
    },
    {
      "id": 60,
      "airline": "AI",
      "flightNumber": "AF759",
      "origin": "GBI",
      "destination": "CBD",
      "departureTime": "16:54",
      "arrivalTime": "17:26",
      "duration": 129,
      "price": 6023,
      "seats": 227,
      "distance": 1939
    },
    {
      "id": 61,
      "airline": "SQ",
      "flightNumber": "AF691",
      "origin": "VSV",
      "destination": "LDA",
      "departureTime": "09:11",
      "arrivalTime": "08:41",
      "duration": 44,
      "price": 2968,
      "seats": 260,
      "distance": 667
    },
    {
      "id": 62,
      "airline": "AF",
      "flightNumber": "SQ512",
      "origin": "VSV",
      "destination": "AGX",
      "departureTime": "11:46",
      "arrivalTime": "23:08",
      "duration": 141,
      "price": 6993,
      "seats": 92,
      "distance": 2121
    },
    {
      "id": 63,
      "airline": "BA",
      "flightNumber": "LH521",
      "origin": "VSV",
      "destination": "AIP",
      "departureTime": "09:55",
      "arrivalTime": "01:42",
      "duration": 49,
      "price": 4048,
      "seats": 182,
      "distance": 748
    },
    {
      "id": 64,
      "airline": "AF",
      "flightNumber": "BA205",
      "origin": "VSV",
      "destination": "SLV",
      "departureTime": "20:49",
      "arrivalTime": "19:56",
      "duration": 41,
      "price": 2977,
      "seats": 138,
      "distance": 624
    },
    {
      "id": 65,
      "airline": "BA",
      "flightNumber": "SQ312",
      "origin": "TCR",
      "destination": "TEZ",
      "departureTime": "11:15",
      "arrivalTime": "12:29",
      "duration": 168,
      "price": 7594,
      "seats": 262,
      "distance": 2532
    },
    {
      "id": 66,
      "airline": "AI",
      "flightNumber": "KL841",
      "origin": "TCR",
      "destination": "VGA",
      "departureTime": "09:27",
      "arrivalTime": "03:55",
      "duration": 61,
      "price": 4544,
      "seats": 92,
      "distance": 918
    },
    {
      "id": 67,
      "airline": "SQ",
      "flightNumber": "KL404",
      "origin": "AZH",
      "destination": "TRZ",
      "departureTime": "18:16",
      "arrivalTime": "09:59",
      "duration": 118,
      "price": 6704,
      "seats": 272,
      "distance": 1772
    },
    {
      "id": 68,
      "airline": "BA",
      "flightNumber": "KL917",
      "origin": "AZH",
      "destination": "BKB",
      "departureTime": "03:44",
      "arrivalTime": "17:00",
      "duration": 66,
      "price": 4191,
      "seats": 238,
      "distance": 1003
    },
    {
      "id": 69,
      "airline": "LH",
      "flightNumber": "BA868",
      "origin": "CWK",
      "destination": "DGH",
      "departureTime": "23:23",
      "arrivalTime": "14:02",
      "duration": 39,
      "price": 3775,
      "seats": 217,
      "distance": 587
    },
    {
      "id": 70,
      "airline": "AI",
      "flightNumber": "LH515",
      "origin": "CWK",
      "destination": "JDH",
      "departureTime": "00:01",
      "arrivalTime": "20:22",
      "duration": 53,
      "price": 3324,
      "seats": 101,
      "distance": 799
    },
    {
      "id": 71,
      "airline": "EK",
      "flightNumber": "AF686",
      "origin": "CWK",
      "destination": "TRV",
      "departureTime": "10:37",
      "arrivalTime": "14:57",
      "duration": 126,
      "price": 5855,
      "seats": 191,
      "distance": 1903
    },
    {
      "id": 72,
      "airline": "KL",
      "flightNumber": "BA526",
      "origin": "COH",
      "destination": "CBD",
      "departureTime": "06:56",
      "arrivalTime": "03:31",
      "duration": 129,
      "price": 5695,
      "seats": 103,
      "distance": 1942
    },
    {
      "id": 73,
      "airline": "AI",
      "flightNumber": "KL499",
      "origin": "COH",
      "destination": "IMF",
      "departureTime": "01:17",
      "arrivalTime": "20:27",
      "duration": 31,
      "price": 2616,
      "seats": 239,
      "distance": 477
    },
    {
      "id": 74,
      "airline": "SQ",
      "flightNumber": "AI751",
      "origin": "COH",
      "destination": "HDO",
      "departureTime": "11:46",
      "arrivalTime": "10:36",
      "duration": 81,
      "price": 4632,
      "seats": 268,
      "distance": 1222
    },
    {
      "id": 75,
      "airline": "BA",
      "flightNumber": "SQ110",
      "origin": "DEP",
      "destination": "NDC",
      "departureTime": "17:04",
      "arrivalTime": "01:00",
      "duration": 131,
      "price": 6159,
      "seats": 78,
      "distance": 1978
    },
    {
      "id": 76,
      "airline": "KL",
      "flightNumber": "KL441",
      "origin": "DEP",
      "destination": "GBI",
      "departureTime": "18:33",
      "arrivalTime": "05:10",
      "duration": 141,
      "price": 6163,
      "seats": 141,
      "distance": 2128
    },
    {
      "id": 77,
      "airline": "AI",
      "flightNumber": "KL113",
      "origin": "DEP",
      "destination": "LDA",
      "departureTime": "08:32",
      "arrivalTime": "01:51",
      "duration": 46,
      "price": 3538,
      "seats": 150,
      "distance": 690
    },
    {
      "id": 78,
      "airline": "QF",
      "flightNumber": "LH109",
      "origin": "PYB",
      "destination": "AGX",
      "departureTime": "20:46",
      "arrivalTime": "15:03",
      "duration": 95,
      "price": 5428,
      "seats": 106,
      "distance": 1429
    },
    {
      "id": 79,
      "airline": "KL",
      "flightNumber": "EK963",
      "origin": "PYB",
      "destination": "VDY",
      "departureTime": "20:09",
      "arrivalTime": "12:12",
      "duration": 50,
      "price": 3337,
      "seats": 298,
      "distance": 751
    },
    {
      "id": 80,
      "airline": "AF",
      "flightNumber": "EK766",
      "origin": "PYB",
      "destination": "KBK",
      "departureTime": "16:54",
      "arrivalTime": "13:54",
      "duration": 59,
      "price": 3572,
      "seats": 227,
      "distance": 888
    },
    {
      "id": 81,
      "airline": "AI",
      "flightNumber": "EK243",
      "origin": "NVY",
      "destination": "KTU",
      "departureTime": "22:45",
      "arrivalTime": "12:53",
      "duration": 103,
      "price": 4801,
      "seats": 168,
      "distance": 1555
    },
    {
      "id": 82,
      "airline": "QF",
      "flightNumber": "KL584",
      "origin": "NVY",
      "destination": "CBD",
      "departureTime": "01:25",
      "arrivalTime": "10:21",
      "duration": 98,
      "price": 6420,
      "seats": 75,
      "distance": 1479
    },
    {
      "id": 83,
      "airline": "SQ",
      "flightNumber": "SQ457",
      "origin": "NVY",
      "destination": "DMU",
      "departureTime": "00:23",
      "arrivalTime": "00:32",
      "duration": 145,
      "price": 6293,
      "seats": 283,
      "distance": 2179
    },
    {
      "id": 84,
      "airline": "SQ",
      "flightNumber": "AI413",
      "origin": "RJI",
      "destination": "LKO",
      "departureTime": "04:02",
      "arrivalTime": "08:17",
      "duration": 64,
      "price": 4019,
      "seats": 256,
      "distance": 969
    },
    {
      "id": 85,
      "airline": "AI",
      "flightNumber": "KL918",
      "origin": "RMD",
      "destination": "IXK",
      "departureTime": "04:42",
      "arrivalTime": "06:30",
      "duration": 66,
      "price": 4483,
      "seats": 262,
      "distance": 996
    },
    {
      "id": 86,
      "airline": "SQ",
      "flightNumber": "LH904",
      "origin": "RMD",
      "destination": "GOP",
      "departureTime": "08:23",
      "arrivalTime": "04:08",
      "duration": 65,
      "price": 3491,
      "seats": 155,
      "distance": 985
    },
    {
      "id": 87,
      "airline": "KL",
      "flightNumber": "QF173",
      "origin": "RUP",
      "destination": "HGI",
      "departureTime": "05:09",
      "arrivalTime": "16:40",
      "duration": 25,
      "price": 3355,
      "seats": 228,
      "distance": 382
    },
    {
      "id": 88,
      "airline": "BA",
      "flightNumber": "LH706",
      "origin": "RUP",
      "destination": "MAA",
      "departureTime": "17:09",
      "arrivalTime": "10:30",
      "duration": 118,
      "price": 5567,
      "seats": 179,
      "distance": 1781
    },
    {
      "id": 89,
      "airline": "SQ",
      "flightNumber": "QF408",
      "origin": "RUP",
      "destination": "CCU",
      "departureTime": "08:02",
      "arrivalTime": "12:44",
      "duration": 27,
      "price": 3717,
      "seats": 139,
      "distance": 415
    },
    {
      "id": 90,
      "airline": "BA",
      "flightNumber": "QF558",
      "origin": "RUP",
      "destination": "IXB",
      "departureTime": "14:22",
      "arrivalTime": "01:32",
      "duration": 11,
      "price": 3493,
      "seats": 178,
      "distance": 168
    },
    {
      "id": 91,
      "airline": "AI",
      "flightNumber": "SQ243",
      "origin": "WGC",
      "destination": "IXI",
      "departureTime": "03:31",
      "arrivalTime": "07:13",
      "duration": 120,
      "price": 5356,
      "seats": 139,
      "distance": 1814
    },
    {
      "id": 92,
      "airline": "BA",
      "flightNumber": "QF982",
      "origin": "AMD",
      "destination": "VGA",
      "departureTime": "04:41",
      "arrivalTime": "07:04",
      "duration": 74,
      "price": 3858,
      "seats": 215,
      "distance": 1121
    },
    {
      "id": 93,
      "airline": "SQ",
      "flightNumber": "QF133",
      "origin": "AMD",
      "destination": "MZU",
      "departureTime": "05:23",
      "arrivalTime": "13:40",
      "duration": 88,
      "price": 4641,
      "seats": 203,
      "distance": 1325
    },
    {
      "id": 94,
      "airline": "BA",
      "flightNumber": "SQ636",
      "origin": "JAI",
      "destination": "IXU",
      "departureTime": "02:52",
      "arrivalTime": "02:51",
      "duration": 51,
      "price": 4859,
      "seats": 113,
      "distance": 775
    },
    {
      "id": 95,
      "airline": "AF",
      "flightNumber": "KL164",
      "origin": "PNQ",
      "destination": "TRZ",
      "departureTime": "21:39",
      "arrivalTime": "10:21",
      "duration": 67,
      "price": 4256,
      "seats": 203,
      "distance": 1010
    },
    {
      "id": 96,
      "airline": "AF",
      "flightNumber": "AI248",
      "origin": "VNS",
      "destination": "JGA",
      "departureTime": "17:18",
      "arrivalTime": "09:05",
      "duration": 89,
      "price": 5232,
      "seats": 108,
      "distance": 1346
    },
    {
      "id": 97,
      "airline": "BA",
      "flightNumber": "KL751",
      "origin": "VNS",
      "destination": "ATQ",
      "departureTime": "22:29",
      "arrivalTime": "16:22",
      "duration": 70,
      "price": 5427,
      "seats": 87,
      "distance": 1050
    },
    {
      "id": 98,
      "airline": "EK",
      "flightNumber": "SQ205",
      "origin": "VNS",
      "destination": "IXU",
      "departureTime": "13:20",
      "arrivalTime": "06:00",
      "duration": 65,
      "price": 5372,
      "seats": 235,
      "distance": 985
    },
    {
      "id": 99,
      "airline": "SQ",
      "flightNumber": "AF813",
      "origin": "ATQ",
      "destination": "TIR",
      "departureTime": "16:02",
      "arrivalTime": "07:50",
      "duration": 137,
      "price": 6211,
      "seats": 165,
      "distance": 2067
    },
    {
      "id": 100,
      "airline": "AF",
      "flightNumber": "AI316",
      "origin": "ATQ",
      "destination": "PAB",
      "departureTime": "12:19",
      "arrivalTime": "14:16",
      "duration": 86,
      "price": 4231,
      "seats": 296,
      "distance": 1300
    },
    {
      "id": 101,
      "airline": "SQ",
      "flightNumber": "SQ409",
      "origin": "BDQ",
      "destination": "IXG",
      "departureTime": "05:40",
      "arrivalTime": "05:30",
      "duration": 48,
      "price": 3875,
      "seats": 166,
      "distance": 734
    },
    {
      "id": 102,
      "airline": "LH",
      "flightNumber": "KL910",
      "origin": "BDQ",
      "destination": "COH",
      "departureTime": "09:07",
      "arrivalTime": "04:56",
      "duration": 113,
      "price": 6806,
      "seats": 128,
      "distance": 1702
    },
    {
      "id": 103,
      "airline": "SQ",
      "flightNumber": "SQ200",
      "origin": "BDQ",
      "destination": "KQH",
      "departureTime": "14:58",
      "arrivalTime": "04:11",
      "duration": 33,
      "price": 2740,
      "seats": 178,
      "distance": 499
    },
    {
      "id": 104,
      "airline": "EK",
      "flightNumber": "SQ663",
      "origin": "BDQ",
      "destination": "GOP",
      "departureTime": "15:53",
      "arrivalTime": "21:38",
      "duration": 76,
      "price": 4976,
      "seats": 114,
      "distance": 1143
    },
    {
      "id": 105,
      "airline": "KL",
      "flightNumber": "LH491",
      "origin": "BBI",
      "destination": "CCJ",
      "departureTime": "03:59",
      "arrivalTime": "02:02",
      "duration": 97,
      "price": 6017,
      "seats": 296,
      "distance": 1461
    },
    {
      "id": 106,
      "airline": "AF",
      "flightNumber": "SQ507",
      "origin": "LKO",
      "destination": "NAG",
      "departureTime": "18:57",
      "arrivalTime": "20:27",
      "duration": 43,
      "price": 3595,
      "seats": 115,
      "distance": 657
    },
    {
      "id": 107,
      "airline": "AI",
      "flightNumber": "LH445",
      "origin": "IXE",
      "destination": "IDR",
      "departureTime": "12:01",
      "arrivalTime": "17:28",
      "duration": 72,
      "price": 5620,
      "seats": 202,
      "distance": 1089
    },
    {
      "id": 108,
      "airline": "KL",
      "flightNumber": "SQ250",
      "origin": "IXE",
      "destination": "TRZ",
      "departureTime": "16:16",
      "arrivalTime": "21:13",
      "duration": 32,
      "price": 3407,
      "seats": 141,
      "distance": 482
    },
    {
      "id": 109,
      "airline": "SQ",
      "flightNumber": "AF100",
      "origin": "IXE",
      "destination": "DHM",
      "departureTime": "19:04",
      "arrivalTime": "09:01",
      "duration": 142,
      "price": 6105,
      "seats": 214,
      "distance": 2139
    },
    {
      "id": 110,
      "airline": "EK",
      "flightNumber": "SQ164",
      "origin": "VTZ",
      "destination": "SSE",
      "departureTime": "21:15",
      "arrivalTime": "07:02",
      "duration": 51,
      "price": 4255,
      "seats": 206,
      "distance": 772
    },
    {
      "id": 111,
      "airline": "BA",
      "flightNumber": "BA265",
      "origin": "CJB",
      "destination": "JGA",
      "departureTime": "14:38",
      "arrivalTime": "09:18",
      "duration": 98,
      "price": 5168,
      "seats": 217,
      "distance": 1474
    },
    {
      "id": 112,
      "airline": "AI",
      "flightNumber": "QF618",
      "origin": "CJB",
      "destination": "SAG",
      "departureTime": "23:36",
      "arrivalTime": "13:39",
      "duration": 66,
      "price": 3827,
      "seats": 289,
      "distance": 1004
    },
    {
      "id": 113,
      "airline": "SQ",
      "flightNumber": "AF963",
      "origin": "CJB",
      "destination": "RTC",
      "departureTime": "01:26",
      "arrivalTime": "16:16",
      "duration": 51,
      "price": 4332,
      "seats": 128,
      "distance": 776
    },
    {
      "id": 114,
      "airline": "EK",
      "flightNumber": "AF763",
      "origin": "CCJ",
      "destination": "LKO",
      "departureTime": "12:01",
      "arrivalTime": "21:39",
      "duration": 120,
      "price": 6668,
      "seats": 298,
      "distance": 1812
    },
    {
      "id": 115,
      "airline": "AF",
      "flightNumber": "KL863",
      "origin": "CCJ",
      "destination": "JDH",
      "departureTime": "11:47",
      "arrivalTime": "16:42",
      "duration": 113,
      "price": 6380,
      "seats": 192,
      "distance": 1708
    },
    {
      "id": 116,
      "airline": "EK",
      "flightNumber": "AF247",
      "origin": "CCJ",
      "destination": "RJI",
      "departureTime": "10:24",
      "arrivalTime": "10:32",
      "duration": 165,
      "price": 7893,
      "seats": 189,
      "distance": 2478
    },
    {
      "id": 117,
      "airline": "EK",
      "flightNumber": "QF531",
      "origin": "JDH",
      "destination": "PYG",
      "departureTime": "05:15",
      "arrivalTime": "23:55",
      "duration": 103,
      "price": 4974,
      "seats": 179,
      "distance": 1545
    },
    {
      "id": 118,
      "airline": "AI",
      "flightNumber": "BA318",
      "origin": "JDH",
      "destination": "LUH",
      "departureTime": "21:58",
      "arrivalTime": "02:05",
      "duration": 39,
      "price": 2721,
      "seats": 154,
      "distance": 585
    },
    {
      "id": 119,
      "airline": "AF",
      "flightNumber": "EK182",
      "origin": "JDH",
      "destination": "TNI",
      "departureTime": "18:21",
      "arrivalTime": "10:00",
      "duration": 53,
      "price": 3461,
      "seats": 255,
      "distance": 805
    },
    {
      "id": 120,
      "airline": "SQ",
      "flightNumber": "LH119",
      "origin": "IXZ",
      "destination": "IXV",
      "departureTime": "12:19",
      "arrivalTime": "16:04",
      "duration": 123,
      "price": 7177,
      "seats": 278,
      "distance": 1851
    },
    {
      "id": 121,
      "airline": "EK",
      "flightNumber": "SQ612",
      "origin": "IXZ",
      "destination": "HYD",
      "departureTime": "18:57",
      "arrivalTime": "21:45",
      "duration": 110,
      "price": 6711,
      "seats": 142,
      "distance": 1659
    },
    {
      "id": 122,
      "airline": "BA",
      "flightNumber": "AI559",
      "origin": "IXZ",
      "destination": "HDO",
      "departureTime": "22:23",
      "arrivalTime": "18:03",
      "duration": 165,
      "price": 8210,
      "seats": 83,
      "distance": 2479
    },
    {
      "id": 123,
      "airline": "KL",
      "flightNumber": "QF209",
      "origin": "BPM",
      "destination": "CBD",
      "departureTime": "02:39",
      "arrivalTime": "04:12",
      "duration": 120,
      "price": 7012,
      "seats": 111,
      "distance": 1805
    },
    {
      "id": 124,
      "airline": "LH",
      "flightNumber": "KL344",
      "origin": "BPM",
      "destination": "BHU",
      "departureTime": "13:34",
      "arrivalTime": "13:47",
      "duration": 54,
      "price": 4389,
      "seats": 70,
      "distance": 813
    },
    {
      "id": 125,
      "airline": "LH",
      "flightNumber": "SQ605",
      "origin": "BPM",
      "destination": "GOP",
      "departureTime": "18:20",
      "arrivalTime": "16:57",
      "duration": 76,
      "price": 5078,
      "seats": 236,
      "distance": 1152
    },
    {
      "id": 126,
      "airline": "KL",
      "flightNumber": "LH336",
      "origin": "BPM",
      "destination": "PYG",
      "departureTime": "22:06",
      "arrivalTime": "17:52",
      "duration": 100,
      "price": 4619,
      "seats": 191,
      "distance": 1503
    },
    {
      "id": 127,
      "airline": "AI",
      "flightNumber": "AF576",
      "origin": "IXC",
      "destination": "TRZ",
      "departureTime": "06:41",
      "arrivalTime": "20:36",
      "duration": 148,
      "price": 7808,
      "seats": 239,
      "distance": 2222
    },
    {
      "id": 128,
      "airline": "LH",
      "flightNumber": "SQ612",
      "origin": "IXC",
      "destination": "RQY",
      "departureTime": "09:49",
      "arrivalTime": "10:21",
      "duration": 124,
      "price": 6686,
      "seats": 76,
      "distance": 1873
    },
    {
      "id": 129,
      "airline": "KL",
      "flightNumber": "SQ710",
      "origin": "IXC",
      "destination": "BHU",
      "departureTime": "09:32",
      "arrivalTime": "21:58",
      "duration": 72,
      "price": 4279,
      "seats": 186,
      "distance": 1092
    },
    {
      "id": 130,
      "airline": "EK",
      "flightNumber": "SQ675",
      "origin": "IXC",
      "destination": "IXQ",
      "departureTime": "17:38",
      "arrivalTime": "07:18",
      "duration": 109,
      "price": 5809,
      "seats": 125,
      "distance": 1649
    },
    {
      "id": 131,
      "airline": "QF",
      "flightNumber": "EK102",
      "origin": "GAU",
      "destination": "NVY",
      "departureTime": "01:13",
      "arrivalTime": "20:19",
      "duration": 136,
      "price": 5932,
      "seats": 206,
      "distance": 2048
    },
    {
      "id": 132,
      "airline": "LH",
      "flightNumber": "EK125",
      "origin": "GAU",
      "destination": "AGR",
      "departureTime": "21:03",
      "arrivalTime": "19:19",
      "duration": 90,
      "price": 5717,
      "seats": 233,
      "distance": 1358
    },
    {
      "id": 133,
      "airline": "QF",
      "flightNumber": "LH720",
      "origin": "GAU",
      "destination": "BPM",
      "departureTime": "08:10",
      "arrivalTime": "22:31",
      "duration": 110,
      "price": 6456,
      "seats": 182,
      "distance": 1659
    },
    {
      "id": 134,
      "airline": "EK",
      "flightNumber": "EK275",
      "origin": "GAU",
      "destination": "KJB",
      "departureTime": "18:57",
      "arrivalTime": "20:59",
      "duration": 120,
      "price": 6294,
      "seats": 216,
      "distance": 1807
    },
    {
      "id": 135,
      "airline": "BA",
      "flightNumber": "BA188",
      "origin": "IXL",
      "destination": "ISK",
      "departureTime": "13:27",
      "arrivalTime": "10:35",
      "duration": 106,
      "price": 5101,
      "seats": 227,
      "distance": 1599
    },
    {
      "id": 136,
      "airline": "BA",
      "flightNumber": "QF115",
      "origin": "IXB",
      "destination": "CNN",
      "departureTime": "14:35",
      "arrivalTime": "13:07",
      "duration": 141,
      "price": 6713,
      "seats": 152,
      "distance": 2116
    },
    {
      "id": 137,
      "airline": "SQ",
      "flightNumber": "SQ194",
      "origin": "IXB",
      "destination": "GWL",
      "departureTime": "13:23",
      "arrivalTime": "14:55",
      "duration": 67,
      "price": 4190,
      "seats": 71,
      "distance": 1005
    },
    {
      "id": 138,
      "airline": "SQ",
      "flightNumber": "BA866",
      "origin": "IDR",
      "destination": "CCJ",
      "departureTime": "22:14",
      "arrivalTime": "11:00",
      "duration": 85,
      "price": 4909,
      "seats": 184,
      "distance": 1288
    },
    {
      "id": 139,
      "airline": "AF",
      "flightNumber": "EK390",
      "origin": "IDR",
      "destination": "TRZ",
      "departureTime": "16:06",
      "arrivalTime": "09:06",
      "duration": 91,
      "price": 4401,
      "seats": 196,
      "distance": 1365
    },
    {
      "id": 140,
      "airline": "EK",
      "flightNumber": "QF438",
      "origin": "IDR",
      "destination": "VSV",
      "departureTime": "16:38",
      "arrivalTime": "14:18",
      "duration": 54,
      "price": 3401,
      "seats": 191,
      "distance": 821
    },
    {
      "id": 141,
      "airline": "AF",
      "flightNumber": "EK374",
      "origin": "IDR",
      "destination": "KQH",
      "departureTime": "20:25",
      "arrivalTime": "03:31",
      "duration": 29,
      "price": 3809,
      "seats": 189,
      "distance": 441
    },
    {
      "id": 142,
      "airline": "LH",
      "flightNumber": "EK566",
      "origin": "UDR",
      "destination": "TRV",
      "departureTime": "11:26",
      "arrivalTime": "15:51",
      "duration": 121,
      "price": 6289,
      "seats": 166,
      "distance": 1822
    },
    {
      "id": 143,
      "airline": "SQ",
      "flightNumber": "AI403",
      "origin": "UDR",
      "destination": "DBD",
      "departureTime": "20:36",
      "arrivalTime": "06:19",
      "duration": 84,
      "price": 4107,
      "seats": 60,
      "distance": 1273
    },
    {
      "id": 144,
      "airline": "BA",
      "flightNumber": "SQ372",
      "origin": "UDR",
      "destination": "ZER",
      "departureTime": "10:14",
      "arrivalTime": "18:01",
      "duration": 134,
      "price": 6354,
      "seats": 149,
      "distance": 2015
    },
    {
      "id": 145,
      "airline": "AF",
      "flightNumber": "AF611",
      "origin": "IXM",
      "destination": "IXH",
      "departureTime": "22:08",
      "arrivalTime": "13:59",
      "duration": 145,
      "price": 7799,
      "seats": 293,
      "distance": 2182
    },
    {
      "id": 146,
      "airline": "AI",
      "flightNumber": "QF457",
      "origin": "IXM",
      "destination": "RRK",
      "departureTime": "17:01",
      "arrivalTime": "22:07",
      "duration": 103,
      "price": 5502,
      "seats": 155,
      "distance": 1556
    },
    {
      "id": 147,
      "airline": "AF",
      "flightNumber": "KL270",
      "origin": "IXM",
      "destination": "BLR",
      "departureTime": "18:22",
      "arrivalTime": "23:36",
      "duration": 25,
      "price": 3544,
      "seats": 120,
      "distance": 376
    },
    {
      "id": 148,
      "airline": "LH",
      "flightNumber": "LH729",
      "origin": "PAT",
      "destination": "AKD",
      "departureTime": "13:09",
      "arrivalTime": "11:56",
      "duration": 65,
      "price": 3600,
      "seats": 90,
      "distance": 984
    },
    {
      "id": 149,
      "airline": "AI",
      "flightNumber": "QF349",
      "origin": "PAT",
      "destination": "VGA",
      "departureTime": "21:00",
      "arrivalTime": "18:44",
      "duration": 73,
      "price": 4797,
      "seats": 187,
      "distance": 1101
    },
    {
      "id": 150,
      "airline": "AF",
      "flightNumber": "AI248",
      "origin": "SXR",
      "destination": "IXZ",
      "departureTime": "22:04",
      "arrivalTime": "00:16",
      "duration": 205,
      "price": 9317,
      "seats": 300,
      "distance": 3080
    },
    {
      "id": 151,
      "airline": "AF",
      "flightNumber": "EK299",
      "origin": "SXR",
      "destination": "DED",
      "departureTime": "11:06",
      "arrivalTime": "02:02",
      "duration": 35,
      "price": 3363,
      "seats": 186,
      "distance": 530
    },
    {
      "id": 152,
      "airline": "AI",
      "flightNumber": "QF927",
      "origin": "STV",
      "destination": "GUX",
      "departureTime": "00:32",
      "arrivalTime": "06:47",
      "duration": 40,
      "price": 4080,
      "seats": 116,
      "distance": 614
    },
    {
      "id": 153,
      "airline": "SQ",
      "flightNumber": "EK823",
      "origin": "STV",
      "destination": "IXX",
      "departureTime": "20:42",
      "arrivalTime": "01:43",
      "duration": 40,
      "price": 3822,
      "seats": 114,
      "distance": 611
    },
    {
      "id": 154,
      "airline": "AF",
      "flightNumber": "KL504",
      "origin": "STV",
      "destination": "RUP",
      "departureTime": "04:38",
      "arrivalTime": "11:50",
      "duration": 122,
      "price": 5871,
      "seats": 52,
      "distance": 1834
    },
    {
      "id": 155,
      "airline": "KL",
      "flightNumber": "KL270",
      "origin": "NAG",
      "destination": "KLH",
      "departureTime": "04:21",
      "arrivalTime": "02:16",
      "duration": 46,
      "price": 4118,
      "seats": 57,
      "distance": 701
    },
    {
      "id": 156,
      "airline": "QF",
      "flightNumber": "LH789",
      "origin": "NAG",
      "destination": "GBI",
      "departureTime": "19:01",
      "arrivalTime": "12:36",
      "duration": 31,
      "price": 3514,
      "seats": 234,
      "distance": 474
    },
    {
      "id": 157,
      "airline": "KL",
      "flightNumber": "SQ219",
      "origin": "NAG",
      "destination": "BLR",
      "departureTime": "03:57",
      "arrivalTime": "11:43",
      "duration": 59,
      "price": 3578,
      "seats": 137,
      "distance": 889
    },
    {
      "id": 158,
      "airline": "AI",
      "flightNumber": "AF434",
      "origin": "BHO",
      "destination": "IXZ",
      "departureTime": "23:48",
      "arrivalTime": "10:52",
      "duration": 138,
      "price": 7225,
      "seats": 195,
      "distance": 2080
    },
    {
      "id": 159,
      "airline": "EK",
      "flightNumber": "BA406",
      "origin": "BHO",
      "destination": "DEP",
      "departureTime": "10:27",
      "arrivalTime": "01:33",
      "duration": 117,
      "price": 6203,
      "seats": 171,
      "distance": 1769
    },
    {
      "id": 160,
      "airline": "SQ",
      "flightNumber": "LH509",
      "origin": "BHO",
      "destination": "CWK",
      "departureTime": "20:25",
      "arrivalTime": "20:34",
      "duration": 28,
      "price": 2752,
      "seats": 274,
      "distance": 420
    },
    {
      "id": 161,
      "airline": "QF",
      "flightNumber": "BA633",
      "origin": "BHO",
      "destination": "IXN",
      "departureTime": "05:38",
      "arrivalTime": "23:32",
      "duration": 96,
      "price": 5400,
      "seats": 136,
      "distance": 1454
    },
    {
      "id": 162,
      "airline": "LH",
      "flightNumber": "BA486",
      "origin": "BHJ",
      "destination": "RGH",
      "departureTime": "22:39",
      "arrivalTime": "18:32",
      "duration": 129,
      "price": 5432,
      "seats": 77,
      "distance": 1949
    },
    {
      "id": 163,
      "airline": "EK",
      "flightNumber": "KL968",
      "origin": "VGA",
      "destination": "CWK",
      "departureTime": "11:19",
      "arrivalTime": "21:54",
      "duration": 64,
      "price": 3641,
      "seats": 202,
      "distance": 960
    },
    {
      "id": 164,
      "airline": "QF",
      "flightNumber": "SQ470",
      "origin": "VGA",
      "destination": "DED",
      "departureTime": "22:48",
      "arrivalTime": "03:10",
      "duration": 102,
      "price": 4868,
      "seats": 66,
      "distance": 1541
    },
    {
      "id": 165,
      "airline": "AF",
      "flightNumber": "AF314",
      "origin": "IXU",
      "destination": "IXZ",
      "departureTime": "06:47",
      "arrivalTime": "21:49",
      "duration": 137,
      "price": 7239,
      "seats": 101,
      "distance": 2065
    },
    {
      "id": 166,
      "airline": "AF",
      "flightNumber": "EK809",
      "origin": "IMF",
      "destination": "CJB",
      "departureTime": "04:50",
      "arrivalTime": "03:52",
      "duration": 156,
      "price": 7882,
      "seats": 258,
      "distance": 2342
    },
    {
      "id": 167,
      "airline": "BA",
      "flightNumber": "BA366",
      "origin": "IMF",
      "destination": "BHO",
      "departureTime": "17:40",
      "arrivalTime": "00:36",
      "duration": 112,
      "price": 5362,
      "seats": 71,
      "distance": 1688
    },
    {
      "id": 168,
      "airline": "EK",
      "flightNumber": "QF397",
      "origin": "IMF",
      "destination": "TEZ",
      "departureTime": "01:16",
      "arrivalTime": "00:24",
      "duration": 16,
      "price": 2831,
      "seats": 266,
      "distance": 243
    },
    {
      "id": 169,
      "airline": "SQ",
      "flightNumber": "EK875",
      "origin": "IXJ",
      "destination": "BPM",
      "departureTime": "16:50",
      "arrivalTime": "01:40",
      "duration": 115,
      "price": 6154,
      "seats": 112,
      "distance": 1732
    },
    {
      "id": 170,
      "airline": "EK",
      "flightNumber": "LH885",
      "origin": "IXR",
      "destination": "HRH",
      "departureTime": "10:03",
      "arrivalTime": "20:05",
      "duration": 58,
      "price": 4822,
      "seats": 72,
      "distance": 879
    },
    {
      "id": 171,
      "airline": "SQ",
      "flightNumber": "EK701",
      "origin": "AGR",
      "destination": "BLR",
      "departureTime": "07:56",
      "arrivalTime": "11:57",
      "duration": 103,
      "price": 6433,
      "seats": 109,
      "distance": 1552
    },
    {
      "id": 172,
      "airline": "AI",
      "flightNumber": "BA464",
      "origin": "AGR",
      "destination": "KNU",
      "departureTime": "01:54",
      "arrivalTime": "06:22",
      "duration": 17,
      "price": 2208,
      "seats": 293,
      "distance": 257
    },
    {
      "id": 173,
      "airline": "EK",
      "flightNumber": "SQ725",
      "origin": "KUU",
      "destination": "SAG",
      "departureTime": "11:38",
      "arrivalTime": "06:32",
      "duration": 92,
      "price": 5994,
      "seats": 121,
      "distance": 1383
    },
    {
      "id": 174,
      "airline": "AI",
      "flightNumber": "AI945",
      "origin": "KUU",
      "destination": "NDC",
      "departureTime": "17:32",
      "arrivalTime": "10:23",
      "duration": 94,
      "price": 5777,
      "seats": 135,
      "distance": 1411
    },
    {
      "id": 175,
      "airline": "SQ",
      "flightNumber": "AF212",
      "origin": "KUU",
      "destination": "CBD",
      "departureTime": "19:01",
      "arrivalTime": "08:13",
      "duration": 199,
      "price": 8249,
      "seats": 198,
      "distance": 2998
    },
    {
      "id": 176,
      "airline": "LH",
      "flightNumber": "AF192",
      "origin": "KUU",
      "destination": "BUP",
      "departureTime": "08:44",
      "arrivalTime": "21:35",
      "duration": 19,
      "price": 3732,
      "seats": 198,
      "distance": 289
    },
    {
      "id": 177,
      "airline": "KL",
      "flightNumber": "AF637",
      "origin": "DIB",
      "destination": "KTU",
      "departureTime": "14:36",
      "arrivalTime": "12:08",
      "duration": 128,
      "price": 7083,
      "seats": 245,
      "distance": 1926
    },
    {
      "id": 178,
      "airline": "BA",
      "flightNumber": "AF918",
      "origin": "DIB",
      "destination": "PAB",
      "departureTime": "10:07",
      "arrivalTime": "01:39",
      "duration": 95,
      "price": 5179,
      "seats": 165,
      "distance": 1438
    },
    {
      "id": 179,
      "airline": "LH",
      "flightNumber": "LH175",
      "origin": "DIB",
      "destination": "BKB",
      "departureTime": "08:15",
      "arrivalTime": "10:33",
      "duration": 142,
      "price": 7282,
      "seats": 117,
      "distance": 2143
    },
    {
      "id": 180,
      "airline": "SQ",
      "flightNumber": "QF627",
      "origin": "CNN",
      "destination": "IMF",
      "departureTime": "09:07",
      "arrivalTime": "11:24",
      "duration": 160,
      "price": 8244,
      "seats": 265,
      "distance": 2401
    },
    {
      "id": 181,
      "airline": "LH",
      "flightNumber": "QF733",
      "origin": "RPR",
      "destination": "CBD",
      "departureTime": "10:38",
      "arrivalTime": "02:36",
      "duration": 119,
      "price": 5441,
      "seats": 222,
      "distance": 1787
    },
    {
      "id": 182,
      "airline": "KL",
      "flightNumber": "QF573",
      "origin": "IXA",
      "destination": "BHO",
      "departureTime": "01:52",
      "arrivalTime": "21:04",
      "duration": 94,
      "price": 4355,
      "seats": 112,
      "distance": 1417
    },
    {
      "id": 183,
      "airline": "BA",
      "flightNumber": "QF680",
      "origin": "IXA",
      "destination": "PYG",
      "departureTime": "11:09",
      "arrivalTime": "03:22",
      "duration": 30,
      "price": 3757,
      "seats": 83,
      "distance": 457
    },
    {
      "id": 184,
      "airline": "BA",
      "flightNumber": "LH363",
      "origin": "IXA",
      "destination": "DHM",
      "departureTime": "12:49",
      "arrivalTime": "18:29",
      "duration": 115,
      "price": 6110,
      "seats": 191,
      "distance": 1731
    },
    {
      "id": 185,
      "airline": "LH",
      "flightNumber": "LH579",
      "origin": "IXA",
      "destination": "PBD",
      "departureTime": "13:48",
      "arrivalTime": "03:12",
      "duration": 148,
      "price": 7105,
      "seats": 256,
      "distance": 2224
    },
    {
      "id": 186,
      "airline": "LH",
      "flightNumber": "BA758",
      "origin": "BHU",
      "destination": "CCJ",
      "departureTime": "08:19",
      "arrivalTime": "02:45",
      "duration": 83,
      "price": 5634,
      "seats": 225,
      "distance": 1246
    },
    {
      "id": 187,
      "airline": "QF",
      "flightNumber": "SQ608",
      "origin": "BHU",
      "destination": "IXE",
      "departureTime": "11:43",
      "arrivalTime": "23:18",
      "duration": 67,
      "price": 4216,
      "seats": 70,
      "distance": 1018
    },
    {
      "id": 188,
      "airline": "QF",
      "flightNumber": "BA698",
      "origin": "BHU",
      "destination": "COK",
      "departureTime": "09:32",
      "arrivalTime": "02:40",
      "duration": 91,
      "price": 5588,
      "seats": 105,
      "distance": 1366
    },
    {
      "id": 189,
      "airline": "BA",
      "flightNumber": "AI117",
      "origin": "JLR",
      "destination": "JRH",
      "departureTime": "08:31",
      "arrivalTime": "19:24",
      "duration": 98,
      "price": 4861,
      "seats": 88,
      "distance": 1476
    },
    {
      "id": 190,
      "airline": "AI",
      "flightNumber": "QF622",
      "origin": "JLR",
      "destination": "DEL",
      "departureTime": "07:43",
      "arrivalTime": "22:11",
      "duration": 44,
      "price": 3160,
      "seats": 86,
      "distance": 667
    },
    {
      "id": 191,
      "airline": "EK",
      "flightNumber": "AI575",
      "origin": "JLR",
      "destination": "HGI",
      "departureTime": "12:48",
      "arrivalTime": "13:39",
      "duration": 95,
      "price": 5293,
      "seats": 231,
      "distance": 1430
    },
    {
      "id": 192,
      "airline": "KL",
      "flightNumber": "EK980",
      "origin": "JLR",
      "destination": "DGH",
      "departureTime": "04:55",
      "arrivalTime": "10:55",
      "duration": 46,
      "price": 3360,
      "seats": 145,
      "distance": 691
    },
    {
      "id": 193,
      "airline": "LH",
      "flightNumber": "EK910",
      "origin": "JRH",
      "destination": "LTU",
      "departureTime": "21:52",
      "arrivalTime": "08:10",
      "duration": 135,
      "price": 7248,
      "seats": 221,
      "distance": 2037
    },
    {
      "id": 194,
      "airline": "AF",
      "flightNumber": "AI727",
      "origin": "JRH",
      "destination": "NAG",
      "departureTime": "11:29",
      "arrivalTime": "14:28",
      "duration": 110,
      "price": 5657,
      "seats": 234,
      "distance": 1659
    },
    {
      "id": 195,
      "airline": "KL",
      "flightNumber": "SQ227",
      "origin": "JRH",
      "destination": "BBI",
      "departureTime": "08:20",
      "arrivalTime": "22:33",
      "duration": 74,
      "price": 3774,
      "seats": 77,
      "distance": 1115
    },
    {
      "id": 196,
      "airline": "BA",
      "flightNumber": "BA606",
      "origin": "RJA",
      "destination": "GOX",
      "departureTime": "13:33",
      "arrivalTime": "13:55",
      "duration": 57,
      "price": 4509,
      "seats": 151,
      "distance": 861
    },
    {
      "id": 197,
      "airline": "AF",
      "flightNumber": "AF286",
      "origin": "RJA",
      "destination": "IMF",
      "departureTime": "13:38",
      "arrivalTime": "08:24",
      "duration": 100,
      "price": 5872,
      "seats": 110,
      "distance": 1514
    },
    {
      "id": 198,
      "airline": "AI",
      "flightNumber": "BA754",
      "origin": "RJA",
      "destination": "JLR",
      "departureTime": "02:18",
      "arrivalTime": "06:13",
      "duration": 46,
      "price": 3048,
      "seats": 224,
      "distance": 699
    },
    {
      "id": 199,
      "airline": "BA",
      "flightNumber": "QF744",
      "origin": "RJA",
      "destination": "DGH",
      "departureTime": "18:03",
      "arrivalTime": "23:06",
      "duration": 64,
      "price": 3921,
      "seats": 238,
      "distance": 961
    },
    {
      "id": 200,
      "airline": "AI",
      "flightNumber": "SQ117",
      "origin": "RAJ",
      "destination": "GOP",
      "departureTime": "00:36",
      "arrivalTime": "18:55",
      "duration": 91,
      "price": 6204,
      "seats": 220,
      "distance": 1372
    },
    {
      "id": 201,
      "airline": "EK",
      "flightNumber": "KL636",
      "origin": "RAJ",
      "destination": "NAG",
      "departureTime": "18:07",
      "arrivalTime": "12:07",
      "duration": 57,
      "price": 4664,
      "seats": 193,
      "distance": 864
    },
    {
      "id": 202,
      "airline": "EK",
      "flightNumber": "SQ453",
      "origin": "RAJ",
      "destination": "GOI",
      "departureTime": "11:53",
      "arrivalTime": "02:34",
      "duration": 55,
      "price": 4206,
      "seats": 161,
      "distance": 834
    },
    {
      "id": 203,
      "airline": "AI",
      "flightNumber": "QF880",
      "origin": "RAJ",
      "destination": "SAG",
      "departureTime": "00:24",
      "arrivalTime": "12:01",
      "duration": 31,
      "price": 4047,
      "seats": 150,
      "distance": 473
    },
    {
      "id": 204,
      "airline": "LH",
      "flightNumber": "AF606",
      "origin": "HJR",
      "destination": "HBX",
      "departureTime": "13:16",
      "arrivalTime": "11:39",
      "duration": 77,
      "price": 5729,
      "seats": 85,
      "distance": 1165
    },
    {
      "id": 205,
      "airline": "EK",
      "flightNumber": "SQ376",
      "origin": "ISK",
      "destination": "KJB",
      "departureTime": "19:01",
      "arrivalTime": "04:02",
      "duration": 44,
      "price": 4524,
      "seats": 269,
      "distance": 665
    },
    {
      "id": 206,
      "airline": "EK",
      "flightNumber": "SQ468",
      "origin": "ISK",
      "destination": "BDQ",
      "departureTime": "21:47",
      "arrivalTime": "11:56",
      "duration": 17,
      "price": 3818,
      "seats": 256,
      "distance": 256
    },
    {
      "id": 207,
      "airline": "LH",
      "flightNumber": "KL763",
      "origin": "DED",
      "destination": "ZER",
      "departureTime": "16:52",
      "arrivalTime": "01:10",
      "duration": 103,
      "price": 5638,
      "seats": 109,
      "distance": 1549
    },
    {
      "id": 208,
      "airline": "BA",
      "flightNumber": "KL777",
      "origin": "JGA",
      "destination": "MAA",
      "departureTime": "07:03",
      "arrivalTime": "01:30",
      "duration": 100,
      "price": 6204,
      "seats": 95,
      "distance": 1504
    },
    {
      "id": 209,
      "airline": "QF",
      "flightNumber": "SQ304",
      "origin": "JGA",
      "destination": "IXA",
      "departureTime": "01:50",
      "arrivalTime": "02:40",
      "duration": 144,
      "price": 7657,
      "seats": 224,
      "distance": 2173
    },
    {
      "id": 210,
      "airline": "BA",
      "flightNumber": "KL314",
      "origin": "JGA",
      "destination": "PGH",
      "departureTime": "15:26",
      "arrivalTime": "03:24",
      "duration": 79,
      "price": 4075,
      "seats": 180,
      "distance": 1195
    },
    {
      "id": 211,
      "airline": "AF",
      "flightNumber": "AF284",
      "origin": "IXS",
      "destination": "AGX",
      "departureTime": "03:23",
      "arrivalTime": "19:13",
      "duration": 179,
      "price": 7248,
      "seats": 261,
      "distance": 2695
    },
    {
      "id": 212,
      "airline": "QF",
      "flightNumber": "KL577",
      "origin": "TRZ",
      "destination": "PNQ",
      "departureTime": "00:06",
      "arrivalTime": "02:57",
      "duration": 67,
      "price": 4148,
      "seats": 270,
      "distance": 1010
    },
    {
      "id": 213,
      "airline": "KL",
      "flightNumber": "LH892",
      "origin": "TRZ",
      "destination": "WGC",
      "departureTime": "01:40",
      "arrivalTime": "18:58",
      "duration": 53,
      "price": 3828,
      "seats": 241,
      "distance": 800
    },
    {
      "id": 214,
      "airline": "SQ",
      "flightNumber": "EK735",
      "origin": "AGX",
      "destination": "CNN",
      "departureTime": "08:04",
      "arrivalTime": "02:02",
      "duration": 25,
      "price": 4271,
      "seats": 178,
      "distance": 387
    },
    {
      "id": 215,
      "airline": "AI",
      "flightNumber": "BA511",
      "origin": "AGX",
      "destination": "GWL",
      "departureTime": "06:48",
      "arrivalTime": "15:14",
      "duration": 122,
      "price": 6966,
      "seats": 137,
      "distance": 1833
    },
    {
      "id": 216,
      "airline": "KL",
      "flightNumber": "BA324",
      "origin": "AJL",
      "destination": "DHM",
      "departureTime": "07:29",
      "arrivalTime": "23:28",
      "duration": 123,
      "price": 5583,
      "seats": 62,
      "distance": 1850
    },
    {
      "id": 217,
      "airline": "BA",
      "flightNumber": "LH925",
      "origin": "AJL",
      "destination": "SDW",
      "departureTime": "21:55",
      "arrivalTime": "10:40",
      "duration": 144,
      "price": 7453,
      "seats": 115,
      "distance": 2174
    },
    {
      "id": 218,
      "airline": "AF",
      "flightNumber": "LH383",
      "origin": "AJL",
      "destination": "GDB",
      "departureTime": "22:11",
      "arrivalTime": "01:22",
      "duration": 86,
      "price": 5291,
      "seats": 293,
      "distance": 1290
    },
    {
      "id": 219,
      "airline": "QF",
      "flightNumber": "EK631",
      "origin": "AJL",
      "destination": "PGH",
      "departureTime": "15:12",
      "arrivalTime": "07:05",
      "duration": 95,
      "price": 4373,
      "seats": 96,
      "distance": 1429
    },
    {
      "id": 220,
      "airline": "LH",
      "flightNumber": "BA622",
      "origin": "IXD",
      "destination": "DIU",
      "departureTime": "23:02",
      "arrivalTime": "16:20",
      "duration": 81,
      "price": 4061,
      "seats": 69,
      "distance": 1223
    },
    {
      "id": 221,
      "airline": "KL",
      "flightNumber": "QF940",
      "origin": "IXD",
      "destination": "IXI",
      "departureTime": "21:19",
      "arrivalTime": "19:11",
      "duration": 83,
      "price": 4697,
      "seats": 123,
      "distance": 1248
    },
    {
      "id": 222,
      "airline": "AI",
      "flightNumber": "LH644",
      "origin": "DBR",
      "destination": "DIU",
      "departureTime": "06:45",
      "arrivalTime": "05:09",
      "duration": 109,
      "price": 6479,
      "seats": 68,
      "distance": 1644
    },
    {
      "id": 223,
      "airline": "BA",
      "flightNumber": "LH635",
      "origin": "DBR",
      "destination": "DEL",
      "departureTime": "05:36",
      "arrivalTime": "02:45",
      "duration": 60,
      "price": 4298,
      "seats": 63,
      "distance": 909
    },
    {
      "id": 224,
      "airline": "QF",
      "flightNumber": "AI183",
      "origin": "DBR",
      "destination": "RAJ",
      "departureTime": "19:36",
      "arrivalTime": "04:26",
      "duration": 106,
      "price": 5642,
      "seats": 161,
      "distance": 1593
    },
    {
      "id": 225,
      "airline": "BA",
      "flightNumber": "AI765",
      "origin": "DBR",
      "destination": "IXG",
      "departureTime": "00:18",
      "arrivalTime": "07:22",
      "duration": 109,
      "price": 5028,
      "seats": 293,
      "distance": 1639
    },
    {
      "id": 226,
      "airline": "LH",
      "flightNumber": "AI170",
      "origin": "GDB",
      "destination": "SWN",
      "departureTime": "02:58",
      "arrivalTime": "03:48",
      "duration": 65,
      "price": 4203,
      "seats": 283,
      "distance": 984
    },
    {
      "id": 227,
      "airline": "BA",
      "flightNumber": "KL434",
      "origin": "GDB",
      "destination": "IXQ",
      "departureTime": "08:37",
      "arrivalTime": "09:33",
      "duration": 81,
      "price": 4644,
      "seats": 142,
      "distance": 1215
    },
    {
      "id": 228,
      "airline": "LH",
      "flightNumber": "BA503",
      "origin": "GDB",
      "destination": "KJB",
      "departureTime": "18:36",
      "arrivalTime": "17:49",
      "duration": 45,
      "price": 4207,
      "seats": 227,
      "distance": 683
    },
    {
      "id": 229,
      "airline": "AF",
      "flightNumber": "AI133",
      "origin": "GDB",
      "destination": "IXK",
      "departureTime": "13:06",
      "arrivalTime": "21:20",
      "duration": 69,
      "price": 4147,
      "seats": 237,
      "distance": 1037
    },
    {
      "id": 230,
      "airline": "AF",
      "flightNumber": "LH755",
      "origin": "KNU",
      "destination": "AZH",
      "departureTime": "06:53",
      "arrivalTime": "00:52",
      "duration": 18,
      "price": 3844,
      "seats": 280,
      "distance": 271
    },
    {
      "id": 231,
      "airline": "AF",
      "flightNumber": "BA194",
      "origin": "KNU",
      "destination": "PAT",
      "departureTime": "06:09",
      "arrivalTime": "12:59",
      "duration": 31,
      "price": 3712,
      "seats": 246,
      "distance": 476
    },
    {
      "id": 232,
      "airline": "SQ",
      "flightNumber": "EK464",
      "origin": "IXK",
      "destination": "STV",
      "departureTime": "10:02",
      "arrivalTime": "10:28",
      "duration": 17,
      "price": 2908,
      "seats": 236,
      "distance": 257
    },
    {
      "id": 233,
      "airline": "LH",
      "flightNumber": "KL927",
      "origin": "PUT",
      "destination": "IXP",
      "departureTime": "02:12",
      "arrivalTime": "16:03",
      "duration": 134,
      "price": 7245,
      "seats": 101,
      "distance": 2022
    },
    {
      "id": 234,
      "airline": "EK",
      "flightNumber": "QF719",
      "origin": "PUT",
      "destination": "BEP",
      "departureTime": "05:54",
      "arrivalTime": "09:46",
      "duration": 9,
      "price": 3726,
      "seats": 224,
      "distance": 149
    },
    {
      "id": 235,
      "airline": "EK",
      "flightNumber": "SQ813",
      "origin": "PUT",
      "destination": "IXL",
      "departureTime": "01:36",
      "arrivalTime": "00:56",
      "duration": 148,
      "price": 6103,
      "seats": 59,
      "distance": 2222
    },
    {
      "id": 236,
      "airline": "SQ",
      "flightNumber": "LH607",
      "origin": "PUT",
      "destination": "BEP",
      "departureTime": "19:55",
      "arrivalTime": "02:45",
      "duration": 9,
      "price": 1972,
      "seats": 167,
      "distance": 149
    },
    {
      "id": 237,
      "airline": "EK",
      "flightNumber": "KL707",
      "origin": "TEZ",
      "destination": "AZH",
      "departureTime": "13:57",
      "arrivalTime": "20:43",
      "duration": 64,
      "price": 5229,
      "seats": 272,
      "distance": 964
    },
    {
      "id": 238,
      "airline": "EK",
      "flightNumber": "KL279",
      "origin": "TEZ",
      "destination": "PAB",
      "departureTime": "11:45",
      "arrivalTime": "00:05",
      "duration": 80,
      "price": 3978,
      "seats": 225,
      "distance": 1201
    },
    {
      "id": 239,
      "airline": "AI",
      "flightNumber": "SQ141",
      "origin": "TEZ",
      "destination": "IXD",
      "departureTime": "21:03",
      "arrivalTime": "02:46",
      "duration": 74,
      "price": 4154,
      "seats": 172,
      "distance": 1112
    },
    {
      "id": 240,
      "airline": "LH",
      "flightNumber": "QF349",
      "origin": "IXG",
      "destination": "AIP",
      "departureTime": "13:06",
      "arrivalTime": "22:35",
      "duration": 115,
      "price": 6866,
      "seats": 50,
      "distance": 1735
    },
    {
      "id": 241,
      "airline": "SQ",
      "flightNumber": "SQ316",
      "origin": "IXG",
      "destination": "RJI",
      "departureTime": "13:01",
      "arrivalTime": "10:26",
      "duration": 129,
      "price": 6095,
      "seats": 181,
      "distance": 1948
    },
    {
      "id": 242,
      "airline": "AF",
      "flightNumber": "EK689",
      "origin": "IXG",
      "destination": "BEP",
      "departureTime": "19:08",
      "arrivalTime": "02:17",
      "duration": 16,
      "price": 3754,
      "seats": 298,
      "distance": 254
    },
    {
      "id": 243,
      "airline": "AF",
      "flightNumber": "QF755",
      "origin": "IXG",
      "destination": "BHJ",
      "departureTime": "23:03",
      "arrivalTime": "23:39",
      "duration": 64,
      "price": 5247,
      "seats": 99,
      "distance": 974
    },
    {
      "id": 244,
      "airline": "AI",
      "flightNumber": "QF315",
      "origin": "GAY",
      "destination": "DIB",
      "departureTime": "07:36",
      "arrivalTime": "23:21",
      "duration": 69,
      "price": 3996,
      "seats": 167,
      "distance": 1049
    },
    {
      "id": 245,
      "airline": "LH",
      "flightNumber": "EK771",
      "origin": "GAY",
      "destination": "AJL",
      "departureTime": "00:35",
      "arrivalTime": "04:35",
      "duration": 52,
      "price": 4011,
      "seats": 159,
      "distance": 783
    },
    {
      "id": 246,
      "airline": "QF",
      "flightNumber": "KL312",
      "origin": "GAY",
      "destination": "NMB",
      "departureTime": "20:25",
      "arrivalTime": "16:48",
      "duration": 88,
      "price": 4202,
      "seats": 60,
      "distance": 1331
    },
    {
      "id": 247,
      "airline": "EK",
      "flightNumber": "KL972",
      "origin": "GWL",
      "destination": "PAT",
      "departureTime": "16:45",
      "arrivalTime": "10:32",
      "duration": 46,
      "price": 3330,
      "seats": 262,
      "distance": 690
    },
    {
      "id": 248,
      "airline": "SQ",
      "flightNumber": "BA703",
      "origin": "GWL",
      "destination": "SWN",
      "departureTime": "15:15",
      "arrivalTime": "06:08",
      "duration": 27,
      "price": 2592,
      "seats": 89,
      "distance": 418
    },
    {
      "id": 249,
      "airline": "AI",
      "flightNumber": "EK736",
      "origin": "PBD",
      "destination": "KNU",
      "departureTime": "02:56",
      "arrivalTime": "13:52",
      "duration": 80,
      "price": 4858,
      "seats": 61,
      "distance": 1212
    },
    {
      "id": 250,
      "airline": "LH",
      "flightNumber": "LH498",
      "origin": "PBD",
      "destination": "LKO",
      "departureTime": "07:32",
      "arrivalTime": "05:44",
      "duration": 84,
      "price": 4150,
      "seats": 198,
      "distance": 1272
    },
    {
      "id": 251,
      "airline": "QF",
      "flightNumber": "AI910",
      "origin": "PBD",
      "destination": "BHU",
      "departureTime": "02:32",
      "arrivalTime": "13:19",
      "duration": 17,
      "price": 2272,
      "seats": 115,
      "distance": 261
    }
  ]
}